[{"name":"M&S Foodhall","lat":51.53781,"lng":-0.1420408,"type":"Supermarket","excess":257.038269365},{"name":"Waitrose","lat":51.5163445,"lng":-0.1872577,"type":"Supermarket","excess":459.3862932476},{"name":"Siragro Food & Wine","lat":51.551496,"lng":-0.3197216,"type":"Supermarket","excess":0.0},{"name":"Co-op Food","lat":51.3651976,"lng":-0.1610793,"type":"Supermarket","excess":0.0},{"name":"Iceland","lat":51.6066678,"lng":0.2184595,"type":"Supermarket","excess":27.0145520346},{"name":"Co-op Food","lat":51.5935962,"lng":0.2333935,"type":"Supermarket","excess":0.0},{"name":"Sainsbury's New Barnet","lat":51.6495733,"lng":-0.1714391,"type":"Supermarket","excess":116.8067071742},{"name":"Waitrose","lat":51.6559569,"lng":-0.2039214,"type":"Supermarket","excess":1.2453387013},{"name":"Lidl","lat":51.4252759,"lng":-0.04804,"type":"Supermarket","excess":52.7115296481},{"name":"Lidl","lat":51.4263195,"lng":-0.0262991,"type":"Supermarket","excess":104.8204594044},{"name":"Tesco","lat":51.4536317,"lng":-0.1462284,"type":"Supermarket","excess":257.0342757719},{"name":"Co-op Food","lat":51.5256052,"lng":-0.0905348,"type":"Supermarket","excess":233.8192759898},{"name":"China Ark","lat":51.5203402,"lng":-0.0525884,"type":"Supermarket","excess":255.5073358522},{"name":"Whole Foods Market","lat":51.5622036,"lng":-0.0752635,"type":"Supermarket","excess":81.1323112983},{"name":"Drinks, Food And Wine","lat":51.5101799,"lng":-0.2871931,"type":"Supermarket","excess":134.4511076775},{"name":"Arsenal Mini Mart","lat":51.5538294,"lng":-0.111026,"type":"Supermarket","excess":228.2996617477},{"name":"Co-op Food","lat":51.5004995,"lng":-0.0992896,"type":"Supermarket","excess":531.4156911751},{"name":"Waitrose","lat":51.5222888,"lng":-0.0921222,"type":"Supermarket","excess":9.2732608366},{"name":"Costless Supermarket","lat":51.5251868,"lng":-0.1677061,"type":"Supermarket","excess":259.2770549538},{"name":"Planet Organic","lat":51.5378737,"lng":-0.0994848,"type":"Supermarket","excess":0.0},{"name":"M&S Foodhall","lat":51.4093252,"lng":-0.0253944,"type":"Supermarket","excess":373.0513616825},{"name":"Supersave Food & Wine","lat":51.535802,"lng":-0.2463002,"type":"Supermarket","excess":0.0},{"name":"Pak Discount Cash & Carry","lat":51.5387965,"lng":-0.2506357,"type":"Supermarket","excess":208.7496424926},{"name":"Lidl","lat":51.5611699,"lng":-0.2810103,"type":"Supermarket","excess":0.0},{"name":"Sainsbury's","lat":51.4029424,"lng":-0.1931919,"type":"Supermarket","excess":14.8125202683},{"name":"Thai Smile","lat":51.4932737,"lng":-0.2395565,"type":"Supermarket","excess":182.8838709019},{"name":"M&S Foodhall","lat":51.5196423,"lng":-0.1336008,"type":"Supermarket","excess":0.0},{"name":"Budgens","lat":51.5435891,"lng":-0.1034635,"type":"Supermarket","excess":399.5970250238},{"name":"Longdan","lat":51.5684253,"lng":-0.0246506,"type":"Supermarket","excess":51.0528599861},{"name":"Budgens","lat":51.4803248,"lng":-0.2125111,"type":"Supermarket","excess":585.4243400689},{"name":"Costcutter","lat":51.4047157,"lng":-0.097606,"type":"Supermarket","excess":218.1859572298},{"name":"Organic Food Centre","lat":51.5597162,"lng":-0.0739597,"type":"Supermarket","excess":0.0},{"name":"Asda","lat":51.4582491,"lng":0.130167,"type":"Supermarket","excess":0.0},{"name":"Sushi Daily","lat":51.5170472,"lng":-0.1267998,"type":"Supermarket","excess":409.5164546336},{"name":"Little Waitrose","lat":51.5515632,"lng":-0.192598,"type":"Supermarket","excess":629.0378646057},{"name":"Lina Food Centre","lat":51.5328914,"lng":0.0059555,"type":"Supermarket","excess":15.7738243273},{"name":"Lidl","lat":51.4040111,"lng":0.0148911,"type":"Supermarket","excess":0.0},{"name":"The Co-operative Food","lat":51.3932665,"lng":0.0341609,"type":"Supermarket","excess":45.2069398804},{"name":"The Co-operative Food","lat":51.5356791,"lng":-0.089194,"type":"Supermarket","excess":16.0829399592},{"name":"M&S Simply Food","lat":51.5583267,"lng":0.2498087,"type":"Supermarket","excess":100.6090482957},{"name":"Green Valley","lat":51.5151994,"lng":-0.1622861,"type":"Supermarket","excess":778.4635110505},{"name":"Waitrose","lat":51.506411,"lng":-0.2191224,"type":"Supermarket","excess":225.5890458909},{"name":"Londis","lat":51.558598,"lng":0.2374634,"type":"Supermarket","excess":0.0},{"name":"Costcutter","lat":51.5987065,"lng":-0.1106833,"type":"Supermarket","excess":30.02760823},{"name":"So Real","lat":51.568775,"lng":-0.065799,"type":"Supermarket","excess":148.8449991726},{"name":"Spar","lat":51.499397,"lng":-0.1138056,"type":"Supermarket","excess":148.5593995446},{"name":"Kollos Supermarket","lat":51.5634509,"lng":-0.0728931,"type":"Supermarket","excess":85.229120383},{"name":"Sainsbury's","lat":51.547484,"lng":-0.0732063,"type":"Supermarket","excess":17.2050565566},{"name":"Planet Organic","lat":51.515552,"lng":-0.1911509,"type":"Supermarket","excess":377.174063388},{"name":"Waitrose","lat":51.5795019,"lng":-0.1239343,"type":"Supermarket","excess":123.8357205174},{"name":"Sainsbury's","lat":51.5485855,"lng":-0.4747792,"type":"Supermarket","excess":150.8725679325},{"name":"Lidl","lat":51.5868126,"lng":-0.0610958,"type":"Supermarket","excess":22.1818154222},{"name":"Food Bazaar","lat":51.5392452,"lng":-0.0978701,"type":"Supermarket","excess":17.6499810188},{"name":"Co-op Food","lat":51.5709672,"lng":-0.2949597,"type":"Supermarket","excess":0.0},{"name":"Co-op Food","lat":51.5000156,"lng":-0.3061477,"type":"Supermarket","excess":326.0462826859},{"name":"Sainsbury's","lat":51.5417035,"lng":-0.0013384,"type":"Supermarket","excess":233.0133870839},{"name":"Mother Earth","lat":51.5463199,"lng":-0.1008456,"type":"Supermarket","excess":251.32182413},{"name":"Greensmiths","lat":51.5009165,"lng":-0.112365,"type":"Supermarket","excess":185.022151363},{"name":"Waitrose","lat":51.5464243,"lng":-0.179645,"type":"Supermarket","excess":729.1912252522},{"name":"Tesco","lat":51.598887,"lng":0.1639417,"type":"Supermarket","excess":115.0427503907},{"name":"Lidl","lat":51.5032216,"lng":-0.2185824,"type":"Supermarket","excess":0.0},{"name":"Bumblebee Natural Foods","lat":51.5497897,"lng":-0.1304196,"type":"Supermarket","excess":152.9563539188},{"name":"Sainsbury's","lat":51.4097308,"lng":-0.303411,"type":"Supermarket","excess":43.7449990146},{"name":"Q Stores","lat":51.6165904,"lng":-0.1780135,"type":"Supermarket","excess":178.0732615222},{"name":"The 99p shop","lat":51.5611161,"lng":-0.0739865,"type":"Supermarket","excess":132.3576488001},{"name":"Lidl","lat":51.6504896,"lng":-0.0814561,"type":"Supermarket","excess":9.9947404541},{"name":"Aldi","lat":51.5765714,"lng":-0.0966034,"type":"Supermarket","excess":0.0},{"name":"Iceland","lat":51.5635945,"lng":-0.3551755,"type":"Supermarket","excess":0.0},{"name":"Sainsbury's","lat":51.4059642,"lng":-0.030627,"type":"Supermarket","excess":0.0},{"name":"Amazon Fresh","lat":51.5125242,"lng":-0.0848775,"type":"Supermarket","excess":2.1011125554},{"name":"The Co-operative Food","lat":51.4062571,"lng":-0.0577434,"type":"Supermarket","excess":39.7794106389},{"name":"Addis Food and Wine","lat":51.5533382,"lng":-0.1046361,"type":"Supermarket","excess":225.0588646915},{"name":"Waitrose","lat":51.524152,"lng":-0.1027254,"type":"Supermarket","excess":301.6361892509},{"name":"The Co-operative Food","lat":51.4572755,"lng":0.0936301,"type":"Supermarket","excess":53.1097607928},{"name":"Little Waitrose","lat":51.3587154,"lng":-0.2163434,"type":"Supermarket","excess":97.4220074772},{"name":"M&S Food","lat":51.5651738,"lng":-0.1354683,"type":"Supermarket","excess":468.6424534536},{"name":"Nisa Local","lat":51.6522338,"lng":-0.0780602,"type":"Supermarket","excess":86.4984696493},{"name":"City Road Supermarket","lat":51.5292775,"lng":-0.0972154,"type":"Supermarket","excess":165.3714324098},{"name":"Iceland","lat":51.5612147,"lng":-0.2524224,"type":"Supermarket","excess":225.4330539329},{"name":"Planet Organic","lat":51.5118474,"lng":-0.3047286,"type":"Supermarket","excess":165.6991746766},{"name":"Smart","lat":51.5109354,"lng":-0.1869563,"type":"Supermarket","excess":330.7606172414},{"name":"Empire","lat":51.5100189,"lng":-0.28646,"type":"Supermarket","excess":93.1577351077},{"name":"International Supermarket","lat":51.5934277,"lng":0.0251881,"type":"Supermarket","excess":68.1859899805},{"name":"The Source Bulk Foods","lat":51.5785534,"lng":-0.1240837,"type":"Supermarket","excess":24.8957989081},{"name":"Ealing Supermarket","lat":51.5001176,"lng":-0.3066355,"type":"Supermarket","excess":137.184259532},{"name":"Neighbourhood Grocers","lat":51.4991958,"lng":-0.3063405,"type":"Supermarket","excess":11.1319460892},{"name":"Metro Food Centre","lat":51.5900585,"lng":-0.0041542,"type":"Supermarket","excess":118.1267504057},{"name":"Whole Foods Market","lat":51.4637582,"lng":-0.1666907,"type":"Supermarket","excess":161.2716004674},{"name":"Waitrose","lat":51.4626128,"lng":-0.1677865,"type":"Supermarket","excess":198.4185905219},{"name":"Sainsbury's","lat":51.3583294,"lng":-0.1481762,"type":"Supermarket","excess":0.0},{"name":"Bottega Italia","lat":51.5646214,"lng":-0.1324714,"type":"Supermarket","excess":110.8744635617},{"name":"Aldi","lat":51.5145616,"lng":-0.4742683,"type":"Supermarket","excess":490.4485793049},{"name":"Co-op Food","lat":51.4495755,"lng":-0.323031,"type":"Supermarket","excess":166.3137096263},{"name":"ALDI Local","lat":51.5479103,"lng":-0.1809041,"type":"Supermarket","excess":105.1822809438},{"name":"Chelsea farm","lat":51.4848317,"lng":-0.1826036,"type":"Supermarket","excess":84.8684192859},{"name":"Lidl","lat":51.5953653,"lng":-0.3849345,"type":"Supermarket","excess":62.2534047304},{"name":"ALDI","lat":51.5791939,"lng":-0.3992629,"type":"Supermarket","excess":91.4663142226},{"name":"Lidl","lat":51.5417094,"lng":-0.0010622,"type":"Supermarket","excess":95.5599858305},{"name":"Loon Fung","lat":51.5416185,"lng":-0.0012258,"type":"Supermarket","excess":280.4265674704},{"name":"Tesco Express","lat":51.5963268,"lng":-0.2428552,"type":"Supermarket","excess":48.1253018865},{"name":"Lituanica","lat":51.5164669,"lng":0.0627241,"type":"Supermarket","excess":16.0808383186},{"name":"Waitrose & Partners","lat":51.4484848,"lng":-0.3289565,"type":"Supermarket","excess":0.0},{"name":"Lidl","lat":51.580285,"lng":-0.3369249,"type":"Supermarket","excess":38.7366531003},{"name":"Co-Operative","lat":51.6457017,"lng":-0.0814627,"type":"Supermarket","excess":216.7857488542},{"name":"Village wholefoods","lat":51.5367562,"lng":-0.1163324,"type":"Supermarket","excess":348.6869327798},{"name":"Co-op Food","lat":51.5572104,"lng":-0.2150974,"type":"Supermarket","excess":218.380313982},{"name":"Waitrose","lat":51.4111573,"lng":-0.3058558,"type":"Supermarket","excess":201.9175393568},{"name":"M&S Simply Food","lat":51.6335411,"lng":-0.1252823,"type":"Supermarket","excess":22.5532191862},{"name":"Dacha Russian and Eastern European Shop","lat":51.5819338,"lng":-0.1586196,"type":"Supermarket","excess":27.34703924},{"name":"Tesco Express","lat":51.6531662,"lng":-0.1998182,"type":"Supermarket","excess":285.7176818871},{"name":"Village Food Centre","lat":51.6542744,"lng":-0.2014021,"type":"Supermarket","excess":122.4310129678},{"name":"Waitrose","lat":51.6517074,"lng":-0.0841614,"type":"Supermarket","excess":42.0028487992},{"name":"Sainsbury's","lat":51.4808003,"lng":-0.195038,"type":"Supermarket","excess":405.3345726453},{"name":"Lidl","lat":51.4959114,"lng":0.1190726,"type":"Supermarket","excess":0.0},{"name":"Co-op Food","lat":51.4873675,"lng":0.1137149,"type":"Supermarket","excess":200.7095262819},{"name":"M&S Simply Food","lat":51.3925319,"lng":-0.3054997,"type":"Supermarket","excess":141.1309210061},{"name":"Lidl","lat":51.3604903,"lng":-0.3100315,"type":"Supermarket","excess":31.6025767783},{"name":"Waitrose","lat":51.5046343,"lng":-0.0167335,"type":"Supermarket","excess":219.4970340302},{"name":"Asda","lat":51.5828635,"lng":-0.0247563,"type":"Supermarket","excess":81.7440762458},{"name":"Sainsbury's","lat":51.4561921,"lng":0.1492248,"type":"Supermarket","excess":29.0953944426},{"name":"Nisa","lat":51.4543988,"lng":-0.1201641,"type":"Supermarket","excess":281.5123139228},{"name":"Little Waitrose","lat":51.483934,"lng":-0.219429,"type":"Supermarket","excess":45.0769839272},{"name":"Unnamed","lat":51.4990754,"lng":-0.0741708,"type":"Supermarket","excess":259.6887768163},{"name":"Lidl","lat":51.4310043,"lng":-0.1295659,"type":"Supermarket","excess":0.0},{"name":"Costcutter","lat":51.4669777,"lng":0.0529398,"type":"Supermarket","excess":44.2092199416},{"name":"Waitrose","lat":51.5469392,"lng":-0.104305,"type":"Supermarket","excess":159.2406418102},{"name":"Lidl","lat":51.4013351,"lng":-0.1937558,"type":"Supermarket","excess":41.2031136427},{"name":"Istanbul Supermarket","lat":51.5282889,"lng":-0.0914943,"type":"Supermarket","excess":0.0},{"name":"Tesco Express","lat":51.5852933,"lng":-0.2812476,"type":"Supermarket","excess":220.6444825427},{"name":"Amazon Fresh","lat":51.5179134,"lng":-0.0844427,"type":"Supermarket","excess":12.9143227886},{"name":"Oseyo","lat":51.533804,"lng":-0.107041,"type":"Supermarket","excess":53.1222051192},{"name":"Foodways","lat":51.4791141,"lng":-0.1672832,"type":"Supermarket","excess":317.0906338051},{"name":"Co-op Food","lat":51.5913359,"lng":0.0286728,"type":"Supermarket","excess":0.0},{"name":"Bengali Fonga Market","lat":51.5271873,"lng":-0.0585012,"type":"Supermarket","excess":658.6235758805},{"name":"St. Marcus","lat":51.4632814,"lng":-0.2500213,"type":"Supermarket","excess":53.8288102647},{"name":"The Co-operative Food","lat":51.4791352,"lng":-0.1704756,"type":"Supermarket","excess":596.2412522598},{"name":"Nisa Local","lat":51.5555985,"lng":-0.3368802,"type":"Supermarket","excess":311.731209835},{"name":"Wing Yip","lat":51.5672269,"lng":-0.2291356,"type":"Supermarket","excess":105.8696104435},{"name":"Lidl","lat":51.527239,"lng":-0.350475,"type":"Supermarket","excess":0.0},{"name":"Cumberland Food & Wine","lat":51.5140743,"lng":-0.1594742,"type":"Supermarket","excess":0.0},{"name":"Co-op Food","lat":51.544482,"lng":-0.373975,"type":"Supermarket","excess":101.4020044564},{"name":"Co-operative Food","lat":51.5351923,"lng":-0.3944342,"type":"Supermarket","excess":99.6901841044},{"name":"Tesco","lat":51.5859108,"lng":0.082181,"type":"Supermarket","excess":35.3280625115},{"name":"Longdan","lat":51.491484,"lng":-0.098029,"type":"Supermarket","excess":0.0},{"name":"Euromax Market","lat":51.5841458,"lng":-0.100231,"type":"Supermarket","excess":160.8416577174},{"name":"Ari Food Centre","lat":51.6132731,"lng":-0.1769398,"type":"Supermarket","excess":147.5110035233},{"name":"Waitrose","lat":51.4823225,"lng":-0.0156614,"type":"Supermarket","excess":99.083565555},{"name":"Londis","lat":51.4275642,"lng":-0.167622,"type":"Supermarket","excess":0.0},{"name":"ALDI","lat":51.4287571,"lng":-0.1670006,"type":"Supermarket","excess":322.865095656},{"name":"Local Express","lat":51.6489462,"lng":-0.1291364,"type":"Supermarket","excess":11.5618390454},{"name":"Express Supermarket","lat":51.6355831,"lng":-0.0522225,"type":"Supermarket","excess":23.2846611681},{"name":"Lidl","lat":51.6246547,"lng":-0.0597461,"type":"Supermarket","excess":64.3123079003},{"name":"The Co-operative Food","lat":51.456844,"lng":0.0506202,"type":"Supermarket","excess":241.7074393506},{"name":"Budgens","lat":51.5577007,"lng":-0.1317226,"type":"Supermarket","excess":386.7535053231},{"name":"Co-op Food","lat":51.5488986,"lng":0.1992338,"type":"Supermarket","excess":0.0},{"name":"Sainsbury's","lat":51.5751744,"lng":0.180272,"type":"Supermarket","excess":49.6841904646},{"name":"Co-op Food","lat":51.4384069,"lng":0.070926,"type":"Supermarket","excess":134.8329001635},{"name":"Lidl","lat":51.4604134,"lng":-0.005146,"type":"Supermarket","excess":198.6829100434},{"name":"Londis","lat":51.5291262,"lng":-0.1445504,"type":"Supermarket","excess":328.256771175},{"name":"Neel's news","lat":51.5283956,"lng":-0.1436484,"type":"Supermarket","excess":289.9047031614},{"name":"Robert Street Supermarket","lat":51.5283433,"lng":-0.1434343,"type":"Supermarket","excess":632.0127548253},{"name":"Westbourne Nogs Grocery","lat":51.5190088,"lng":-0.1961853,"type":"Supermarket","excess":708.6102577136},{"name":"Lidl","lat":51.53523,"lng":-0.4836689,"type":"Supermarket","excess":428.494643794},{"name":"Londis","lat":51.618556,"lng":0.0073691,"type":"Supermarket","excess":8.9114955615},{"name":"Lidl","lat":51.564695,"lng":-0.2639412,"type":"Supermarket","excess":48.9446472577},{"name":"Whole Foods Market","lat":51.5105264,"lng":-0.1360939,"type":"Supermarket","excess":163.5707799685},{"name":"Londis","lat":51.455582,"lng":-0.1580402,"type":"Supermarket","excess":227.7687734187},{"name":"Oncu Food","lat":51.6357228,"lng":-0.0515252,"type":"Supermarket","excess":95.327495254},{"name":"Asda","lat":51.6416535,"lng":-0.0460313,"type":"Supermarket","excess":108.4833678581},{"name":"Morrisons","lat":51.6175918,"lng":-0.1105006,"type":"Supermarket","excess":89.1834723423},{"name":"Booze Store","lat":51.6523171,"lng":-0.0738625,"type":"Supermarket","excess":77.0393449868},{"name":"The Source Bulk Foods","lat":51.4609137,"lng":-0.1667529,"type":"Supermarket","excess":205.812269895},{"name":"Lidl","lat":51.5420925,"lng":-0.3402487,"type":"Supermarket","excess":244.052212238},{"name":"Costcutter","lat":51.4904091,"lng":-0.1327877,"type":"Supermarket","excess":455.5833459026},{"name":"Pricewise Food & Wine","lat":51.5470224,"lng":-0.179954,"type":"Supermarket","excess":624.3924961809},{"name":"The Bounds Greens","lat":51.6071536,"lng":-0.1245494,"type":"Supermarket","excess":133.0655584004},{"name":"Lidl","lat":51.5081155,"lng":-0.3362529,"type":"Supermarket","excess":90.3409455261},{"name":"Ozdiller Supermarket","lat":51.5923802,"lng":-0.0699827,"type":"Supermarket","excess":22.6942934002},{"name":"Tesco Express","lat":51.531313,"lng":-0.216861,"type":"Supermarket","excess":137.4357881721},{"name":"Mor Foods","lat":51.5076573,"lng":-0.3783882,"type":"Supermarket","excess":89.4672507504},{"name":"M&S Simply Food","lat":51.5069399,"lng":-0.1428187,"type":"Supermarket","excess":721.7149283266},{"name":"M&S Simply Food","lat":51.5139709,"lng":-0.149711,"type":"Supermarket","excess":0.0},{"name":"Foodland Supermarket","lat":51.3854688,"lng":-0.1000826,"type":"Supermarket","excess":169.0436306539},{"name":"Sahar","lat":51.5359863,"lng":-0.2451289,"type":"Supermarket","excess":107.1735198175},{"name":"Way 2 Save","lat":51.5362751,"lng":-0.247632,"type":"Supermarket","excess":6.6787877518},{"name":"Sainsbury's","lat":51.6060531,"lng":-0.0660883,"type":"Supermarket","excess":0.0},{"name":"Amazon Fresh","lat":51.5255079,"lng":-0.1389014,"type":"Supermarket","excess":117.3771876497},{"name":"E1 Local","lat":51.5147715,"lng":-0.0675928,"type":"Supermarket","excess":137.5822675243},{"name":"Geranium","lat":51.5197662,"lng":-0.0966801,"type":"Supermarket","excess":11.9278917623},{"name":"Tawana Oriental Supermarket","lat":51.5158124,"lng":-0.1951537,"type":"Supermarket","excess":530.3499996279},{"name":"Co-op Food","lat":51.4749229,"lng":-0.200867,"type":"Supermarket","excess":129.7764897622},{"name":"Cooperative Food","lat":51.3804446,"lng":-0.0865371,"type":"Supermarket","excess":237.4129065834},{"name":"Co-op Food","lat":51.4547854,"lng":-0.1392317,"type":"Supermarket","excess":0.0},{"name":"Tooting Arena","lat":51.4355303,"lng":-0.1602435,"type":"Supermarket","excess":74.0757323091},{"name":"Waitrose","lat":51.4825907,"lng":-0.1345287,"type":"Supermarket","excess":181.6858943184},{"name":"Al-Dimashqi","lat":51.5061545,"lng":-0.2294641,"type":"Supermarket","excess":508.4423059541},{"name":"Premier Food & Wine","lat":51.5063508,"lng":-0.2393284,"type":"Supermarket","excess":0.0},{"name":"M&S Food","lat":51.5256623,"lng":-0.0899332,"type":"Supermarket","excess":221.8620007092},{"name":"Co-op Food","lat":51.5203298,"lng":0.10767,"type":"Supermarket","excess":79.9935591999},{"name":"Waitrose","lat":51.5360857,"lng":-0.1235071,"type":"Supermarket","excess":0.0},{"name":"Chung Hwa Hong Supermarket","lat":51.5908184,"lng":-0.1030974,"type":"Supermarket","excess":51.9594130916},{"name":"Fodal Oriental Supermarket","lat":51.492379,"lng":-0.0247915,"type":"Supermarket","excess":370.4752549911},{"name":"Asda","lat":51.5372955,"lng":0.0772175,"type":"Supermarket","excess":31.5666527176},{"name":"The Co-operative Food","lat":51.4587815,"lng":-0.0437743,"type":"Supermarket","excess":123.9490680201},{"name":"The Co-operative Food","lat":51.5476923,"lng":-0.1256976,"type":"Supermarket","excess":39.0858981217},{"name":"Food Inn","lat":51.5168879,"lng":0.0102401,"type":"Supermarket","excess":0.0},{"name":"Co-op Food","lat":51.5532657,"lng":-0.1097246,"type":"Supermarket","excess":0.0},{"name":"Co-op Food","lat":51.4421569,"lng":-0.0104819,"type":"Supermarket","excess":60.9535543443},{"name":"Turkish Food Centre","lat":51.4751538,"lng":-0.0952901,"type":"Supermarket","excess":261.3275430146},{"name":"Lituanica","lat":51.5372714,"lng":0.0791098,"type":"Supermarket","excess":30.9903100725},{"name":"Co-op Food","lat":51.5631652,"lng":-0.1974364,"type":"Supermarket","excess":172.8218912458},{"name":"ALDI","lat":51.410248,"lng":-0.3012279,"type":"Supermarket","excess":179.0171029253},{"name":"Save More","lat":51.5419504,"lng":-0.1799277,"type":"Supermarket","excess":698.1798327918},{"name":"Mega Saver","lat":51.4136447,"lng":-0.0512902,"type":"Supermarket","excess":146.3980005067},{"name":"Penge Food Centre","lat":51.4132546,"lng":-0.0510461,"type":"Supermarket","excess":371.6880354544},{"name":"Kosher Kingdom","lat":51.5780594,"lng":-0.2071754,"type":"Supermarket","excess":252.7883543094},{"name":"The Savanna","lat":51.4087864,"lng":-0.2302028,"type":"Supermarket","excess":152.320813221},{"name":"Londis","lat":51.5550333,"lng":-0.1453382,"type":"Supermarket","excess":0.0},{"name":"Morrisons","lat":51.5135148,"lng":-0.3040427,"type":"Supermarket","excess":121.5860439875},{"name":"M&S Foodhall","lat":51.4453634,"lng":-0.2057969,"type":"Supermarket","excess":59.6772155346},{"name":"Corner Shop","lat":51.4351015,"lng":-0.0435749,"type":"Supermarket","excess":234.280172462},{"name":"Brazilian Centre","lat":51.4714087,"lng":-0.1238649,"type":"Supermarket","excess":73.0401739726},{"name":"Iceland","lat":51.4706032,"lng":-0.1247946,"type":"Supermarket","excess":210.0236608542},{"name":"Way 2 Save","lat":51.5784618,"lng":-0.2403299,"type":"Supermarket","excess":89.437515493},{"name":"Rice Wine Shop","lat":51.5107731,"lng":-0.1370793,"type":"Supermarket","excess":356.2217167809},{"name":"Lidl","lat":51.4304194,"lng":-0.1849547,"type":"Supermarket","excess":54.2681260348},{"name":"Aldi","lat":51.5596941,"lng":-0.4015165,"type":"Supermarket","excess":209.2545266637},{"name":"B&M Stores","lat":51.5594869,"lng":-0.4012394,"type":"Supermarket","excess":387.0472548834},{"name":"Co-op Food","lat":51.5003383,"lng":-0.0729975,"type":"Supermarket","excess":314.8706432185},{"name":"Iceland","lat":51.4240895,"lng":-0.0039575,"type":"Supermarket","excess":0.0},{"name":"Premier Shop","lat":51.5547957,"lng":0.1176371,"type":"Supermarket","excess":0.0},{"name":"Off License - Mini-Market","lat":51.5329423,"lng":0.0062367,"type":"Supermarket","excess":192.6304416988},{"name":"Aseda Trading","lat":51.5492384,"lng":0.0053491,"type":"Supermarket","excess":72.4321431087},{"name":"Bubboo Oriental Grocery","lat":51.4212493,"lng":-0.2081849,"type":"Supermarket","excess":222.9112617686},{"name":"Co-op Billet Road","lat":51.5997655,"lng":-0.0266174,"type":"Supermarket","excess":42.6449087402},{"name":"Sri Supermarket","lat":51.5481008,"lng":0.0396044,"type":"Supermarket","excess":0.0},{"name":"Welcome","lat":51.5428416,"lng":-0.1716553,"type":"Supermarket","excess":442.986796612},{"name":"Lidl","lat":51.4556519,"lng":-0.1943398,"type":"Supermarket","excess":98.2471938671},{"name":"Jiahe Supermarket","lat":51.5913373,"lng":-0.103058,"type":"Supermarket","excess":13.2746607279},{"name":"Sulaymaniyah Intl Food Centre","lat":51.5935979,"lng":-0.1065807,"type":"Supermarket","excess":29.559035296},{"name":"Shilpa's News","lat":51.3789313,"lng":-0.1648743,"type":"Supermarket","excess":172.4395366582},{"name":"The Co-operative Food","lat":51.4875928,"lng":-0.436119,"type":"Supermarket","excess":249.0029862488},{"name":"Abis Cash & Carry","lat":51.5627774,"lng":-0.3555626,"type":"Supermarket","excess":172.5695867235},{"name":"Nisa Extra","lat":51.6082719,"lng":0.1063964,"type":"Supermarket","excess":0.0},{"name":"Planet Organic","lat":51.5893981,"lng":-0.1458415,"type":"Supermarket","excess":98.5379976849},{"name":"Afrikan Market","lat":51.4794687,"lng":-0.0943872,"type":"Supermarket","excess":175.5001495679},{"name":"Longdan Express","lat":51.527743,"lng":-0.0767315,"type":"Supermarket","excess":35.1860232306},{"name":"Rayners Food Centre","lat":51.5771561,"lng":-0.3709634,"type":"Supermarket","excess":0.0},{"name":"Co-op Food","lat":51.6068097,"lng":0.2183452,"type":"Supermarket","excess":101.5825653555},{"name":"Rayners Lane Supermarket","lat":51.57673,"lng":-0.3713252,"type":"Supermarket","excess":104.2478860766},{"name":"Sainsbury's Local","lat":51.5953781,"lng":-0.250755,"type":"Supermarket","excess":181.564906839},{"name":"M&S Foodhall","lat":51.491618,"lng":0.0706774,"type":"Supermarket","excess":0.0},{"name":"Young Cheng Fresh Seafood Shop","lat":51.5117382,"lng":-0.1318603,"type":"Supermarket","excess":338.2894932716},{"name":"Sainsbury's","lat":51.4945644,"lng":-0.0976317,"type":"Supermarket","excess":6.7970935567},{"name":"Co-op Food","lat":51.5218271,"lng":-0.1137627,"type":"Supermarket","excess":462.7989359676},{"name":"Brixton Food & WIne","lat":51.4543767,"lng":-0.1131239,"type":"Supermarket","excess":128.3751747971},{"name":"Greens on the Hill","lat":51.5914148,"lng":-0.1415187,"type":"Supermarket","excess":0.0},{"name":"Tesco","lat":51.5064825,"lng":-0.2491087,"type":"Supermarket","excess":0.0},{"name":"Phambra Food Store","lat":51.4503674,"lng":-0.1265723,"type":"Supermarket","excess":146.3494266053},{"name":"Moon Cash & Carry","lat":51.5733956,"lng":-0.37156,"type":"Supermarket","excess":98.791865094},{"name":"Sriram Cash & Carry","lat":51.5767285,"lng":-0.3709335,"type":"Supermarket","excess":55.0779131296},{"name":"Partridges","lat":51.4983571,"lng":-0.1835581,"type":"Supermarket","excess":40.033003028},{"name":"St. Helier Food & Wine","lat":51.3757313,"lng":-0.1775395,"type":"Supermarket","excess":85.7576446556},{"name":"Hiep Phat Vietnamese Supermarket","lat":51.4888156,"lng":-0.095839,"type":"Supermarket","excess":0.0},{"name":"Global Food Store","lat":51.4022507,"lng":-0.1921449,"type":"Supermarket","excess":86.0863563362},{"name":"North West International Supermarket","lat":51.5818797,"lng":-0.3330772,"type":"Supermarket","excess":191.4077832709},{"name":"Costcutter","lat":51.3698695,"lng":-0.1805339,"type":"Supermarket","excess":55.3388044124},{"name":"M&S Foodhall","lat":51.5420387,"lng":-0.3390786,"type":"Supermarket","excess":57.7172850525},{"name":"Lidl","lat":51.3739312,"lng":-0.1198445,"type":"Supermarket","excess":205.237132282},{"name":"M&S Foodhall","lat":51.492729,"lng":-0.226367,"type":"Supermarket","excess":543.3988909996},{"name":"Co-op Food","lat":51.5461174,"lng":-0.0748887,"type":"Supermarket","excess":0.0},{"name":"Co-op Food","lat":51.5898247,"lng":-0.2256884,"type":"Supermarket","excess":289.1964624285},{"name":"Martin\u2019s","lat":51.6264881,"lng":-0.2693464,"type":"Supermarket","excess":221.4432452352},{"name":"Triple A Cash and Carry","lat":51.5958565,"lng":-0.294836,"type":"Supermarket","excess":210.4997549296},{"name":"Little Waitrose","lat":51.6000852,"lng":-0.1949205,"type":"Supermarket","excess":292.6823758688},{"name":"Jumbo","lat":51.5078456,"lng":-0.1243123,"type":"Supermarket","excess":298.1263187245},{"name":"Co-op Food","lat":51.4486452,"lng":-0.1484124,"type":"Supermarket","excess":329.7614783257},{"name":"Co-op Food","lat":51.4890261,"lng":-0.314376,"type":"Supermarket","excess":108.6267479225},{"name":"Lidl","lat":51.584195,"lng":-0.0222858,"type":"Supermarket","excess":0.0},{"name":"Mixas","lat":51.580812,"lng":0.1776323,"type":"Supermarket","excess":22.4775417647},{"name":"AP Food Express","lat":51.5009173,"lng":-0.1178642,"type":"Supermarket","excess":250.4613310141},{"name":"Co-op Food","lat":51.4095417,"lng":-0.2318811,"type":"Supermarket","excess":157.1280566768},{"name":"Japan Centre","lat":51.5097324,"lng":-0.1313656,"type":"Supermarket","excess":149.9565796723},{"name":"Lidl","lat":51.5938278,"lng":-0.106645,"type":"Supermarket","excess":0.0},{"name":"Green Bay","lat":51.4858711,"lng":-0.2029189,"type":"Supermarket","excess":312.8620605874},{"name":"Ecklee","lat":51.3950096,"lng":-0.2378198,"type":"Supermarket","excess":181.9060572334},{"name":"Co-op Food","lat":51.4591018,"lng":-0.0341076,"type":"Supermarket","excess":121.4304207785},{"name":"Sainsbury's Local","lat":51.4905407,"lng":-0.3025806,"type":"Supermarket","excess":147.4955195971},{"name":"Oseyo","lat":51.5023251,"lng":-0.1103454,"type":"Supermarket","excess":140.9285037682},{"name":"Co-op Food","lat":51.5878774,"lng":-0.0403338,"type":"Supermarket","excess":12.9022523013},{"name":"Co-op Food","lat":51.3847483,"lng":-0.2950376,"type":"Supermarket","excess":73.4607042031},{"name":"Little Waitrose","lat":51.5163426,"lng":-0.291001,"type":"Supermarket","excess":212.1136651361},{"name":"GreenBay","lat":51.4858748,"lng":-0.2028974,"type":"Supermarket","excess":0.0},{"name":"Best One","lat":51.4470638,"lng":-0.2174764,"type":"Supermarket","excess":527.0275017467},{"name":"U.see.inn Continental Supermarket","lat":51.5450488,"lng":-0.1179354,"type":"Supermarket","excess":126.8016915025},{"name":"Vital Ingredient","lat":51.5132986,"lng":-0.1419871,"type":"Supermarket","excess":0.0},{"name":"M&S Foodhall","lat":51.5479875,"lng":-0.0756727,"type":"Supermarket","excess":166.3332620411},{"name":"Lidl","lat":51.536038,"lng":0.0349308,"type":"Supermarket","excess":0.0},{"name":"Wa Na Hong Oriental Supermarket","lat":51.5462184,"lng":-0.0045231,"type":"Supermarket","excess":5.4482502608},{"name":"M&S Simply Food","lat":51.6141088,"lng":-0.24918,"type":"Supermarket","excess":42.8474954865},{"name":"Food 4 Less","lat":51.6009418,"lng":-0.2665262,"type":"Supermarket","excess":97.4782539356},{"name":"A Day Fresh","lat":51.5977717,"lng":-0.2774743,"type":"Supermarket","excess":104.2798562888},{"name":"Gayatri","lat":51.5809096,"lng":-0.3336309,"type":"Supermarket","excess":0.0},{"name":"Hak Food Centre","lat":51.5981221,"lng":-0.2783117,"type":"Supermarket","excess":91.2259179318},{"name":"Co-op Food","lat":51.3508737,"lng":-0.0381619,"type":"Supermarket","excess":184.1486199763},{"name":"The Fruit Garden","lat":51.5227275,"lng":-0.1593475,"type":"Supermarket","excess":0.0},{"name":"Istanbul","lat":51.4261098,"lng":-0.0501125,"type":"Supermarket","excess":36.0946478773},{"name":"Endora House Food & Wine","lat":51.4261599,"lng":-0.0528822,"type":"Supermarket","excess":219.6153612845},{"name":"PFC","lat":51.426015,"lng":-0.0518287,"type":"Supermarket","excess":126.0986834601},{"name":"To Tu Polish Food Shop","lat":51.4255895,"lng":-0.0481939,"type":"Supermarket","excess":255.2318436723},{"name":"S K Food & Wine","lat":51.4255549,"lng":-0.0443731,"type":"Supermarket","excess":176.3034722324},{"name":"Istanbul Supermarket","lat":51.4257273,"lng":-0.0434787,"type":"Supermarket","excess":191.7530184733},{"name":"Hoxton Brothers","lat":51.5338081,"lng":-0.0803896,"type":"Supermarket","excess":0.0},{"name":"The Co-operative Food","lat":51.4087795,"lng":-0.1059241,"type":"Supermarket","excess":307.7981301039},{"name":"Seoul Plaza","lat":51.571832,"lng":-0.1963688,"type":"Supermarket","excess":75.9895759571},{"name":"Co-op Food","lat":51.3696409,"lng":0.0010876,"type":"Supermarket","excess":105.071934092},{"name":"ALDI","lat":51.4908886,"lng":0.0222533,"type":"Supermarket","excess":97.5926042376},{"name":"Iceland","lat":51.6027325,"lng":-0.2703528,"type":"Supermarket","excess":97.7537842195},{"name":"The Food Warehouse","lat":51.58653,"lng":-0.0617439,"type":"Supermarket","excess":94.2887169062},{"name":"The Co-operative Food","lat":51.3567786,"lng":-0.1735696,"type":"Supermarket","excess":102.5655618196},{"name":"Oriental Supermarket","lat":51.5297685,"lng":-0.0870768,"type":"Supermarket","excess":266.7659342384},{"name":"Co-op Food","lat":51.3753241,"lng":-0.0469275,"type":"Supermarket","excess":199.3393349941},{"name":"The Co-operative Food","lat":51.3859741,"lng":-0.040214,"type":"Supermarket","excess":175.2947768948},{"name":"Bangla Bazar Cash & Carry","lat":51.5133652,"lng":-0.0332748,"type":"Supermarket","excess":659.086169024},{"name":"Co-op Food","lat":51.3423401,"lng":-0.0162257,"type":"Supermarket","excess":77.1719685483},{"name":"Tropical Essentials Supermarket","lat":51.3407218,"lng":-0.0137921,"type":"Supermarket","excess":0.0},{"name":"Co-op Food","lat":51.3996958,"lng":-0.1322804,"type":"Supermarket","excess":281.1265079366},{"name":"Lidl","lat":51.5099962,"lng":-0.3244228,"type":"Supermarket","excess":98.8086380989},{"name":"Co-operative Food","lat":51.5859381,"lng":-0.18108,"type":"Supermarket","excess":119.225347842},{"name":"Co-op Food","lat":51.5492122,"lng":0.0246253,"type":"Supermarket","excess":344.232093703},{"name":"Wallington Food Centre","lat":51.3611749,"lng":-0.1505781,"type":"Supermarket","excess":92.9181343317},{"name":"Asda","lat":51.4651052,"lng":-0.0165929,"type":"Supermarket","excess":0.0},{"name":"Londis","lat":51.4882157,"lng":-0.3168605,"type":"Supermarket","excess":0.0},{"name":"ALDI","lat":51.4159213,"lng":-0.1788224,"type":"Supermarket","excess":71.5077812642},{"name":"oseyo","lat":51.5387036,"lng":-0.1420206,"type":"Supermarket","excess":748.0796155648},{"name":"Co-op Food","lat":51.4684268,"lng":-0.3259981,"type":"Supermarket","excess":101.7869911514},{"name":"Nisa","lat":51.5494585,"lng":-0.1527653,"type":"Supermarket","excess":0.0},{"name":"Co-op Food","lat":51.5370776,"lng":-0.2062613,"type":"Supermarket","excess":28.9968731394},{"name":"Green Lanes Surgery & Pharmacy","lat":51.6330775,"lng":-0.0940168,"type":"Supermarket","excess":48.7056014274},{"name":"The Battersea General Store","lat":51.4821824,"lng":-0.1461241,"type":"Supermarket","excess":294.5493824811},{"name":"Waitrose","lat":51.6353261,"lng":-0.0939689,"type":"Supermarket","excess":57.2870749577},{"name":"Waitrose","lat":51.4091848,"lng":-0.2333804,"type":"Supermarket","excess":6.1818166661},{"name":"Loco Food Centre","lat":51.5853717,"lng":-0.0794435,"type":"Supermarket","excess":57.8457163165},{"name":"Hao Wah Chinese Supermarket","lat":51.4735144,"lng":-0.0727224,"type":"Supermarket","excess":66.3010995182},{"name":"Sainsbury's","lat":51.5887683,"lng":-0.1172394,"type":"Supermarket","excess":21.6987979547},{"name":"Kim Lien Mini Market","lat":51.4734874,"lng":-0.0712031,"type":"Supermarket","excess":209.9766631365},{"name":"Market Basket","lat":51.5874728,"lng":-0.0983831,"type":"Supermarket","excess":45.6269290255},{"name":"Mara","lat":51.5701404,"lng":-0.0260863,"type":"Supermarket","excess":27.1693444384},{"name":"Nadeem Halal Meat & Grocery","lat":51.5716664,"lng":-0.0218379,"type":"Supermarket","excess":0.0},{"name":"Madina Cash & Carry","lat":51.5711535,"lng":-0.0233185,"type":"Supermarket","excess":0.0},{"name":"KGN Wholesale & Retail","lat":51.5710047,"lng":-0.0236949,"type":"Supermarket","excess":40.9818093999},{"name":"M&S Foodhall","lat":51.5030908,"lng":-0.1161265,"type":"Supermarket","excess":144.6740071175},{"name":"New Kumasi Market","lat":51.4735025,"lng":-0.0695651,"type":"Supermarket","excess":260.3002539225},{"name":"Gulf market","lat":51.5205928,"lng":-0.1707062,"type":"Supermarket","excess":67.7134101524},{"name":"Sainsbury's","lat":51.5093401,"lng":-0.3249925,"type":"Supermarket","excess":164.180351933},{"name":"Co-op Food","lat":51.5594988,"lng":-0.2792106,"type":"Supermarket","excess":3.4821687786},{"name":"Panzer's Delicatessen","lat":51.533457,"lng":-0.1722834,"type":"Supermarket","excess":33.5569775367},{"name":"Waitrose","lat":51.5773482,"lng":-0.2226177,"type":"Supermarket","excess":217.7347843772},{"name":"CEO African Caribbean Food","lat":51.4400807,"lng":-0.4155217,"type":"Supermarket","excess":177.1047007906},{"name":"Co-op Food","lat":51.3925818,"lng":-0.2230726,"type":"Supermarket","excess":54.8010910874},{"name":"Amazon Fresh","lat":51.5007658,"lng":-0.1942934,"type":"Supermarket","excess":277.3174791773},{"name":"La Mart","lat":51.5000899,"lng":-0.1961325,"type":"Supermarket","excess":311.7881329751},{"name":"Milad Supermarket","lat":51.5347328,"lng":-0.1893389,"type":"Supermarket","excess":0.0},{"name":"Al-Shaheen Supermarket","lat":51.5303171,"lng":-0.1854953,"type":"Supermarket","excess":526.5040001801},{"name":"Planet Organic","lat":51.5376794,"lng":-0.2067383,"type":"Supermarket","excess":240.9513948859},{"name":"M&S Foodhall","lat":51.4393675,"lng":-0.1264305,"type":"Supermarket","excess":115.7559092499},{"name":"Sainsbury's Local","lat":51.5500194,"lng":-0.1911823,"type":"Supermarket","excess":79.1519196463},{"name":"Amazon Fresh","lat":51.4630699,"lng":-0.3020706,"type":"Supermarket","excess":6.7356383851},{"name":"SJV Cash & Carry","lat":51.5322093,"lng":0.0502505,"type":"Supermarket","excess":241.6368395735},{"name":"Co-op Food","lat":51.4970012,"lng":0.0117826,"type":"Supermarket","excess":146.4366430369},{"name":"Co-op Food","lat":51.3916002,"lng":-0.0382654,"type":"Supermarket","excess":247.3365199246},{"name":"M&S Simply Food","lat":51.5028622,"lng":-0.0177096,"type":"Supermarket","excess":12.0085434595},{"name":"Prezzemolo & Vitale","lat":51.5152222,"lng":-0.192678,"type":"Supermarket","excess":164.3556209219},{"name":"Tian Tian Oriental Supermarket","lat":51.497837,"lng":-0.0194259,"type":"Supermarket","excess":141.174952978},{"name":"M&S Simply Food","lat":51.5141984,"lng":-0.1542276,"type":"Supermarket","excess":518.1587284228},{"name":"Stroudley Walk Grocery","lat":51.5277329,"lng":-0.0177964,"type":"Supermarket","excess":240.1253858033},{"name":"Marks & Spencer","lat":51.5086352,"lng":-0.2203177,"type":"Supermarket","excess":20.4762039807},{"name":"Waitrose & Partners","lat":51.5127964,"lng":-0.3218211,"type":"Supermarket","excess":157.3555772314},{"name":"Magaza Balkan food","lat":51.5068945,"lng":-0.2455666,"type":"Supermarket","excess":125.2281179556},{"name":"Ikkyu Conveni","lat":51.5164461,"lng":-0.209139,"type":"Supermarket","excess":184.7417851247},{"name":"Garcia's Food and Wine","lat":51.5179567,"lng":-0.2065215,"type":"Supermarket","excess":4.0903505852},{"name":"Costcutter","lat":51.5234509,"lng":-0.2062885,"type":"Supermarket","excess":342.7571706315},{"name":"Green Valley","lat":51.4970638,"lng":-0.2052195,"type":"Supermarket","excess":54.5313194354},{"name":"Forest Hill Supermarket","lat":51.439003,"lng":-0.0526494,"type":"Supermarket","excess":81.0948048492},{"name":"Oksa Quality Food","lat":51.5124694,"lng":-0.2111219,"type":"Supermarket","excess":419.1135409797},{"name":"Mieszko","lat":51.436432,"lng":-0.1275065,"type":"Supermarket","excess":16.457709359},{"name":"Asda","lat":51.4591272,"lng":-0.331819,"type":"Supermarket","excess":120.0017547259},{"name":"Lidl","lat":51.4895852,"lng":0.024692,"type":"Supermarket","excess":216.9022442312},{"name":"Hanwell Local","lat":51.5135396,"lng":-0.3369571,"type":"Supermarket","excess":369.1070545355},{"name":"The Peoples Supermarket","lat":51.5226005,"lng":-0.1187863,"type":"Supermarket","excess":504.3251592629},{"name":"Morrisons","lat":51.5149975,"lng":0.0104157,"type":"Supermarket","excess":0.0},{"name":"Co-op Food","lat":51.4324021,"lng":-0.021195,"type":"Supermarket","excess":0.0},{"name":"Budgens","lat":51.5897389,"lng":-0.1643484,"type":"Supermarket","excess":288.0112159078},{"name":"Iceland","lat":51.5901355,"lng":-0.1644503,"type":"Supermarket","excess":11.8860530947},{"name":"Asda","lat":51.4710255,"lng":-0.3612375,"type":"Supermarket","excess":0.0},{"name":"Sirwan Food Centre","lat":51.6084579,"lng":-0.1105593,"type":"Supermarket","excess":190.8323445643},{"name":"Co-op Food","lat":51.4722579,"lng":-0.2034133,"type":"Supermarket","excess":0.0},{"name":"Ayta Food Centre","lat":51.6065139,"lng":-0.1175565,"type":"Supermarket","excess":50.9236604779},{"name":"Hillingdon Food Centre","lat":51.5305889,"lng":-0.4490171,"type":"Supermarket","excess":0.0},{"name":"International Food Centre","lat":51.6166635,"lng":-0.1403884,"type":"Supermarket","excess":93.0743741166},{"name":"M&S Food","lat":51.4260304,"lng":-0.1316699,"type":"Supermarket","excess":160.6304277031},{"name":"ALDI","lat":51.4259336,"lng":-0.1318874,"type":"Supermarket","excess":291.7554903788},{"name":"ALDI","lat":51.5310218,"lng":0.1450518,"type":"Supermarket","excess":48.36013563},{"name":"Masala Bazaar","lat":51.5675077,"lng":0.1175303,"type":"Supermarket","excess":57.9947092889},{"name":"Co-op Food","lat":51.4905044,"lng":-0.0973661,"type":"Supermarket","excess":82.9634175772},{"name":"Co-op Food","lat":51.5623987,"lng":-0.1257514,"type":"Supermarket","excess":127.4201085792},{"name":"Lidl","lat":51.4222272,"lng":-0.1069023,"type":"Supermarket","excess":300.7167311927},{"name":"Cudi Food Centre","lat":51.5107654,"lng":-0.3212149,"type":"Supermarket","excess":0.0},{"name":"M&S Simply Food","lat":51.5090069,"lng":-0.1979232,"type":"Supermarket","excess":15.153851337},{"name":"Co-op Food","lat":51.5085552,"lng":0.0722854,"type":"Supermarket","excess":45.4856859319},{"name":"Store Park Central","lat":51.4799372,"lng":-0.1486815,"type":"Supermarket","excess":525.1066368219},{"name":"Market Place Store","lat":51.4818466,"lng":-0.1485932,"type":"Supermarket","excess":57.0596809999},{"name":"Co-op Food","lat":51.4424887,"lng":-0.0475799,"type":"Supermarket","excess":107.5306418727},{"name":"M & A Ghadeer Supermarket","lat":51.4700219,"lng":-0.3575442,"type":"Supermarket","excess":153.5732182668},{"name":"Instanbul Grand Bazaar Butcher","lat":51.46998,"lng":-0.357746,"type":"Supermarket","excess":342.6370421296},{"name":"Safa & Marna Supermarket","lat":51.4699216,"lng":-0.358027,"type":"Supermarket","excess":0.0},{"name":"New Istanbul Supermarket","lat":51.5775721,"lng":-0.1061531,"type":"Supermarket","excess":0.0},{"name":"Unnamed","lat":51.5905723,"lng":-0.0934496,"type":"Supermarket","excess":23.7783426666},{"name":"Costcutter","lat":51.4828093,"lng":-0.3099761,"type":"Supermarket","excess":369.2600689953},{"name":"Here Organic Warehouse","lat":51.4880596,"lng":-0.1699133,"type":"Supermarket","excess":212.4880967808},{"name":"Loon Fung Tottenham","lat":51.6079735,"lng":-0.0605488,"type":"Supermarket","excess":53.8336525169},{"name":"Unnamed","lat":51.3836163,"lng":-0.2142044,"type":"Supermarket","excess":112.6089364229},{"name":"Costcutter","lat":51.3486119,"lng":-0.1667138,"type":"Supermarket","excess":17.0681946719},{"name":"Fio's Continental","lat":51.6317474,"lng":-0.1282551,"type":"Supermarket","excess":0.0},{"name":"The Food Warehouse","lat":51.4893971,"lng":0.0338108,"type":"Supermarket","excess":161.8527397675},{"name":"Hyper March\u00e9","lat":51.5111067,"lng":-0.3187886,"type":"Supermarket","excess":369.5789487544},{"name":"Tian Tian Market","lat":51.5136558,"lng":-0.0685472,"type":"Supermarket","excess":344.9764693509},{"name":"Tesco Extra","lat":51.4892684,"lng":0.066274,"type":"Supermarket","excess":85.3590955876},{"name":"Londis","lat":51.3692865,"lng":0.0010021,"type":"Supermarket","excess":0.0},{"name":"Damas Food Centre","lat":51.5103693,"lng":-0.3221776,"type":"Supermarket","excess":86.1913231533},{"name":"Amazon Fresh","lat":51.5573287,"lng":-0.2818909,"type":"Supermarket","excess":268.07614821},{"name":"Lidl","lat":51.4314498,"lng":-0.1647051,"type":"Supermarket","excess":0.0},{"name":"Eataly","lat":51.5186453,"lng":-0.0801583,"type":"Supermarket","excess":20.3257710284},{"name":"Dayi","lat":51.6049509,"lng":-0.0865312,"type":"Supermarket","excess":43.0430126817},{"name":"Londis","lat":51.509612,"lng":-0.2373857,"type":"Supermarket","excess":111.9036923322},{"name":"Longdan","lat":51.4579388,"lng":-0.0133864,"type":"Supermarket","excess":121.10783671},{"name":"Silverpoint Food Centre","lat":51.6113674,"lng":-0.0649487,"type":"Supermarket","excess":50.2789231347},{"name":"Korona","lat":51.4473409,"lng":-0.0180312,"type":"Supermarket","excess":0.0},{"name":"Unnamed","lat":51.4841581,"lng":0.1748582,"type":"Supermarket","excess":21.473860424},{"name":"Co-op Food","lat":51.5000485,"lng":-0.2389164,"type":"Supermarket","excess":309.0498970364},{"name":"Amazon Fresh","lat":51.5028153,"lng":-0.0151746,"type":"Supermarket","excess":520.7614279275},{"name":"Costcutter","lat":51.4317596,"lng":0.0310837,"type":"Supermarket","excess":0.0},{"name":"Co-op Food","lat":51.4875368,"lng":0.0027163,"type":"Supermarket","excess":72.5262257827},{"name":"The Boutique Grocer","lat":51.5387125,"lng":-0.1040028,"type":"Supermarket","excess":0.0},{"name":"Al Medina","lat":51.5167686,"lng":0.061711,"type":"Supermarket","excess":116.4752139946},{"name":"Kacha Bazar Extra","lat":51.5169382,"lng":0.0617714,"type":"Supermarket","excess":247.1300990758},{"name":"Food Bazar","lat":51.5173698,"lng":0.0619014,"type":"Supermarket","excess":99.7034360536},{"name":"Lidl","lat":51.4137249,"lng":-0.17607,"type":"Supermarket","excess":42.200209469},{"name":"Khun Ya Thai Supermarket","lat":51.498653,"lng":-0.0589384,"type":"Supermarket","excess":0.0},{"name":"Baghdad Food Centre","lat":51.5064722,"lng":-0.2550644,"type":"Supermarket","excess":185.344685004},{"name":"ALDI","lat":51.3723618,"lng":-0.1188797,"type":"Supermarket","excess":53.9544887456},{"name":"Jiamart","lat":51.5016601,"lng":0.0308499,"type":"Supermarket","excess":98.9246971043},{"name":"Lidl","lat":51.3780012,"lng":-0.1554407,"type":"Supermarket","excess":9.4353099987},{"name":"Nisa","lat":51.5091331,"lng":-0.0020627,"type":"Supermarket","excess":0.0},{"name":"Harringay Local Store","lat":51.5839372,"lng":-0.1001865,"type":"Supermarket","excess":41.5722628375},{"name":"Co-op Food","lat":51.5948362,"lng":-0.2500145,"type":"Supermarket","excess":43.6188732503},{"name":"Lidl","lat":51.49694,"lng":0.15652,"type":"Supermarket","excess":116.2623994301},{"name":"Lidl","lat":51.3464213,"lng":-0.0197393,"type":"Supermarket","excess":0.0},{"name":"Lidl","lat":51.5661126,"lng":-0.1076062,"type":"Supermarket","excess":31.4276582004},{"name":"Lidl","lat":51.5073863,"lng":-0.2699911,"type":"Supermarket","excess":57.6822210989},{"name":"Lidl","lat":51.5606,"lng":0.078896,"type":"Supermarket","excess":0.0},{"name":"Lidl","lat":51.4932003,"lng":-0.2275114,"type":"Supermarket","excess":254.0267500427},{"name":"The Savanna","lat":51.5028329,"lng":-0.083473,"type":"Supermarket","excess":0.0},{"name":"Ortadogu Supermarket","lat":51.4702453,"lng":-0.3554987,"type":"Supermarket","excess":44.8594027332},{"name":"Co-op Food","lat":51.4917522,"lng":0.0164026,"type":"Supermarket","excess":127.7287653334},{"name":"Amazon Fresh","lat":51.4710493,"lng":-0.35396,"type":"Supermarket","excess":255.1270161124},{"name":"USSR Retail","lat":51.4699273,"lng":-0.3565885,"type":"Supermarket","excess":0.0},{"name":"Fone And Vape","lat":51.3608328,"lng":-0.1918141,"type":"Supermarket","excess":65.5167023748},{"name":"JK Enterprises","lat":51.3982296,"lng":-0.2553788,"type":"Supermarket","excess":67.2438755544},{"name":"Seoul Plaza","lat":51.3982781,"lng":-0.2553854,"type":"Supermarket","excess":230.7739471323},{"name":"Budgens","lat":51.3641416,"lng":-0.1186244,"type":"Supermarket","excess":399.2316301081},{"name":"Amazon Fresh","lat":51.5135103,"lng":-0.0701403,"type":"Supermarket","excess":21.5010907536},{"name":"Darbari Fancy Textiles","lat":51.5112655,"lng":-0.3785455,"type":"Supermarket","excess":19.0190671206},{"name":"M&S Foodhall","lat":51.3936386,"lng":0.1129539,"type":"Supermarket","excess":44.1870731531},{"name":"Brazilian Delights","lat":51.5490813,"lng":-0.1296603,"type":"Supermarket","excess":0.0},{"name":"Planet Organic","lat":51.5555053,"lng":-0.1748124,"type":"Supermarket","excess":407.8957988823},{"name":"Planet Organic","lat":51.521273,"lng":-0.0751462,"type":"Supermarket","excess":377.2733296927},{"name":"M&S Foodhall","lat":51.5941553,"lng":-0.3811969,"type":"Supermarket","excess":194.5102841146},{"name":"Waitrose","lat":51.5165828,"lng":-0.1874061,"type":"Supermarket","excess":82.8556244213},{"name":"1010 Supermarket","lat":51.5657478,"lng":-0.0745162,"type":"Supermarket","excess":281.6467407858},{"name":"River Supermarket","lat":51.4982969,"lng":-0.0609349,"type":"Supermarket","excess":0.0},{"name":"sMart Oriental","lat":51.3614729,"lng":-0.1919726,"type":"Supermarket","excess":0.0},{"name":"Jaz Food & Wine","lat":51.5226392,"lng":-0.2590682,"type":"Supermarket","excess":326.4216237202},{"name":"Riverside Supermarket","lat":51.5517998,"lng":-0.0315302,"type":"Supermarket","excess":4.4515280672},{"name":"M&S Food","lat":51.5647362,"lng":-0.107621,"type":"Supermarket","excess":152.8322094817},{"name":"Tesco Extra","lat":51.4249057,"lng":-0.1316223,"type":"Supermarket","excess":177.1151714302},{"name":"Budgens","lat":51.3901726,"lng":0.0499146,"type":"Supermarket","excess":152.27158901},{"name":"Chase Supermarket","lat":51.6533208,"lng":-0.0911848,"type":"Supermarket","excess":89.6821304114},{"name":"East Europe Food","lat":51.5140347,"lng":-0.3370573,"type":"Supermarket","excess":51.2094039808},{"name":"Tian Tian Market","lat":51.5144522,"lng":0.0097155,"type":"Supermarket","excess":108.6565526255},{"name":"ALDI","lat":51.3758658,"lng":-0.2230686,"type":"Supermarket","excess":0.0},{"name":"ALDI","lat":51.5653531,"lng":0.1047027,"type":"Supermarket","excess":78.8816931645},{"name":"ALDI","lat":51.5241051,"lng":-0.1756893,"type":"Supermarket","excess":0.0},{"name":"Amazon Fresh","lat":51.5110352,"lng":-0.2230555,"type":"Supermarket","excess":229.5246644727},{"name":"Lidl","lat":51.5457579,"lng":-0.4767332,"type":"Supermarket","excess":245.9352823621},{"name":"Co-op Food","lat":51.4947671,"lng":-0.0792107,"type":"Supermarket","excess":457.2416085026},{"name":"The Savanna","lat":51.5033945,"lng":-0.0188683,"type":"Supermarket","excess":601.7272833913},{"name":"Europol","lat":51.3657634,"lng":-0.1939924,"type":"Supermarket","excess":171.8949978821},{"name":"The Nest","lat":51.5086392,"lng":-0.0084965,"type":"Supermarket","excess":446.569738445},{"name":"Lidl","lat":51.5650332,"lng":-0.1044227,"type":"Supermarket","excess":66.2100126986},{"name":"Planet Food","lat":51.5651342,"lng":-0.1034356,"type":"Supermarket","excess":36.3679355547},{"name":"ALDI","lat":51.5257277,"lng":-0.0894412,"type":"Supermarket","excess":0.0},{"name":"Co-op Food","lat":51.4925911,"lng":-0.2752112,"type":"Supermarket","excess":46.4921843135},{"name":"Trustcos","lat":51.525761,"lng":-0.3160988,"type":"Supermarket","excess":410.1767968658},{"name":"Welcome","lat":51.5392641,"lng":-0.0240726,"type":"Supermarket","excess":299.6014381173},{"name":"Co-op Food","lat":51.6158737,"lng":-0.1438963,"type":"Supermarket","excess":74.3505491656},{"name":"Iceland","lat":51.3814298,"lng":-0.2835993,"type":"Supermarket","excess":68.9350389105},{"name":"Wickham Food Centre","lat":51.3765325,"lng":-0.0191358,"type":"Supermarket","excess":150.5500353041},{"name":"M&S Foodhall","lat":51.3767608,"lng":-0.0190978,"type":"Supermarket","excess":96.5489453059},{"name":"Istanbul Organic Supermarket","lat":51.4926957,"lng":-0.2312728,"type":"Supermarket","excess":306.4924531441},{"name":"Kujawiak","lat":51.4697336,"lng":-0.358984,"type":"Supermarket","excess":0.0},{"name":"Unnamed","lat":51.5052053,"lng":-0.0902335,"type":"Supermarket","excess":35.7184208295},{"name":"Local Express","lat":51.5208436,"lng":0.0198598,"type":"Supermarket","excess":0.0},{"name":"Major Foods Ltd","lat":51.5307465,"lng":0.1181933,"type":"Supermarket","excess":69.1542606478},{"name":"Costcutter","lat":51.5290694,"lng":0.1046871,"type":"Supermarket","excess":82.2773100094},{"name":"Welcome","lat":51.5287348,"lng":0.1042322,"type":"Supermarket","excess":86.0716967752},{"name":"Lewisham Food Centre","lat":51.4588417,"lng":-0.0121811,"type":"Supermarket","excess":75.0190690189},{"name":"M&S Foodhall","lat":51.4808628,"lng":-0.1444133,"type":"Supermarket","excess":456.5171085972},{"name":"Giddy Grocer","lat":51.5012173,"lng":-0.0821537,"type":"Supermarket","excess":34.8450314015},{"name":"Londis","lat":51.5624911,"lng":-0.3058087,"type":"Supermarket","excess":43.891285013},{"name":"Szampion Polskie Delikatesy","lat":51.600542,"lng":-0.0675875,"type":"Supermarket","excess":109.8151411535},{"name":"Nazar Supermarket","lat":51.5997972,"lng":-0.0681522,"type":"Supermarket","excess":0.0},{"name":"ALDI","lat":51.4637165,"lng":0.0288966,"type":"Supermarket","excess":243.0250378171},{"name":"Jarr Market","lat":51.5589856,"lng":-0.0744704,"type":"Supermarket","excess":215.344125639},{"name":"M&S Foodhall","lat":51.5943526,"lng":-0.2621248,"type":"Supermarket","excess":178.9401612874},{"name":"ALDI","lat":51.5946819,"lng":-0.262391,"type":"Supermarket","excess":116.1728546808},{"name":"M&S Food","lat":51.5060815,"lng":-0.0173163,"type":"Supermarket","excess":433.6850740954},{"name":"Unnamed","lat":51.5267411,"lng":0.0308128,"type":"Supermarket","excess":0.0},{"name":"The Co-op","lat":51.5872765,"lng":-0.1327226,"type":"Supermarket","excess":62.1804242567},{"name":"Cosmo Foods","lat":51.6135651,"lng":-0.1762712,"type":"Supermarket","excess":294.2861746509},{"name":"Sultan Food Centre","lat":51.6119199,"lng":-0.1754706,"type":"Supermarket","excess":221.717201271},{"name":"Waitrose","lat":51.4613659,"lng":-0.301844,"type":"Supermarket","excess":54.1862706739},{"name":"Dag Supermarket","lat":51.475472,"lng":-0.0198065,"type":"Supermarket","excess":113.8413046369},{"name":"Mleczko delikatesy","lat":51.5074141,"lng":-0.2724517,"type":"Supermarket","excess":63.4332266464},{"name":"Star Fruit & Veg","lat":51.5585474,"lng":0.0706193,"type":"Supermarket","excess":16.5713576952},{"name":"Grains & Green","lat":51.5435573,"lng":-0.0551301,"type":"Supermarket","excess":0.0},{"name":"Cranbrook Supermarket","lat":51.5625545,"lng":0.0676616,"type":"Supermarket","excess":95.8244728387},{"name":"Amazon Fresh","lat":51.5301212,"lng":-0.0745071,"type":"Supermarket","excess":5.4447337617},{"name":"Costcutter Express","lat":51.4330788,"lng":-0.0172024,"type":"Supermarket","excess":0.0},{"name":"Tesco","lat":51.4867902,"lng":-0.1150326,"type":"Supermarket","excess":304.9555501797},{"name":"Archies","lat":51.5902984,"lng":0.0496901,"type":"Supermarket","excess":1.4103899336},{"name":"YOHOME","lat":51.4980126,"lng":-0.0176148,"type":"Supermarket","excess":18.8733685401},{"name":"Acasa Delicatessen Limited","lat":51.591158,"lng":0.0832789,"type":"Supermarket","excess":64.4006256954},{"name":"Baylis Food and Wine","lat":51.5928872,"lng":0.0840838,"type":"Supermarket","excess":0.0},{"name":"Drayton Manor High School PTA car boot","lat":51.52639,"lng":-0.3426977,"type":"Supermarket","excess":312.8013916825},{"name":"FM Food Centre","lat":51.4206955,"lng":-0.0012419,"type":"Supermarket","excess":97.1715413038},{"name":"Nisa Local","lat":51.546481,"lng":-0.1909244,"type":"Supermarket","excess":887.3068336866},{"name":"Sira Cash and Carry","lat":51.5096018,"lng":-0.3762335,"type":"Supermarket","excess":107.6545506582},{"name":"St. James Supermarket","lat":51.4924173,"lng":-0.0653912,"type":"Supermarket","excess":133.0380866831},{"name":"Costcutter","lat":51.3764455,"lng":-0.2218464,"type":"Supermarket","excess":0.0},{"name":"OK OK Chinese Supermarket","lat":51.3600814,"lng":-0.1944453,"type":"Supermarket","excess":133.6862938487},{"name":"Hadar Kosher Supermarket","lat":51.6159647,"lng":-0.2748325,"type":"Supermarket","excess":285.0793051788},{"name":"Dadinho Distributions","lat":51.5848633,"lng":-0.0769785,"type":"Supermarket","excess":24.0487144464},{"name":"Co-op Food","lat":51.6091704,"lng":-0.2101854,"type":"Supermarket","excess":252.2933209316},{"name":"YOHOME Oriental Lifestyle\/\u6709\u5bb6\u8d85\u5e02","lat":51.570968,"lng":-0.0894535,"type":"Supermarket","excess":103.0765148625},{"name":"Prince Food & Wine","lat":51.4915169,"lng":-0.1185035,"type":"Supermarket","excess":22.2457085883},{"name":"TFC","lat":51.4924134,"lng":0.0627744,"type":"Supermarket","excess":136.3536867606},{"name":"Mega Food Centre","lat":51.6058592,"lng":-0.187504,"type":"Supermarket","excess":158.5894114517},{"name":"Persia","lat":51.6059851,"lng":-0.1873169,"type":"Supermarket","excess":29.7551978224},{"name":"Mega Organix","lat":51.6061492,"lng":-0.1870732,"type":"Supermarket","excess":334.6145014243},{"name":"Best Foods Mega Mart","lat":51.4252306,"lng":-0.0042821,"type":"Supermarket","excess":137.2061728331},{"name":"Best Foods Supermarket","lat":51.5308532,"lng":-0.3718936,"type":"Supermarket","excess":194.2997165715},{"name":"Unnamed","lat":51.3984664,"lng":-0.0760319,"type":"Supermarket","excess":172.0098033061},{"name":"Family Sari Sari Store","lat":51.5135862,"lng":-0.4712596,"type":"Supermarket","excess":316.8126062013},{"name":"Aldi","lat":51.6129162,"lng":-0.177182,"type":"Supermarket","excess":212.277606826},{"name":"Kosher Edge","lat":51.6158844,"lng":-0.2765413,"type":"Supermarket","excess":90.9776942277},{"name":"Northwood Hills Supermarket","lat":51.6015558,"lng":-0.4096338,"type":"Supermarket","excess":423.6668328949},{"name":"Planet Plenty","lat":51.4708145,"lng":-0.2106699,"type":"Supermarket","excess":146.0761315456},{"name":"Mieszko Polish Supermarket","lat":51.4730512,"lng":-0.3872156,"type":"Supermarket","excess":197.4633609997},{"name":"Morrisons","lat":51.4826743,"lng":-0.30875,"type":"Supermarket","excess":210.0395960755},{"name":"Wawel Tradycyjne Polski Smaki","lat":51.4991401,"lng":-0.3063229,"type":"Supermarket","excess":392.9844289701},{"name":"Unnamed","lat":51.507057,"lng":-0.0739626,"type":"Supermarket","excess":0.0},{"name":"Nazar Food Centre","lat":51.6171948,"lng":-0.1770101,"type":"Supermarket","excess":46.1277484973},{"name":"Lidl","lat":51.5399531,"lng":-0.2995099,"type":"Supermarket","excess":166.4853518484},{"name":"Polski Sklep n Cioci","lat":51.6153386,"lng":-0.27532,"type":"Supermarket","excess":162.2714430222},{"name":"Simply Food & Wine","lat":51.5106941,"lng":-0.1868731,"type":"Supermarket","excess":54.7407477524},{"name":"England Pharmacy","lat":51.510552,"lng":-0.136228,"type":"Supermarket","excess":255.6951652612},{"name":"Oseyo","lat":51.4109205,"lng":-0.3013676,"type":"Supermarket","excess":29.2822982108},{"name":"Save More Superstore","lat":51.5049097,"lng":-0.4192214,"type":"Supermarket","excess":0.0},{"name":"Unnamed","lat":51.5940762,"lng":-0.336175,"type":"Supermarket","excess":261.0339047614},{"name":"Northwest","lat":51.5362883,"lng":0.0525498,"type":"Supermarket","excess":0.0},{"name":"Hoji","lat":51.4926129,"lng":-0.2603342,"type":"Supermarket","excess":74.2267826126},{"name":"Tian Tian Market","lat":51.5136219,"lng":-0.3059248,"type":"Supermarket","excess":95.9006605533},{"name":"Tian Tian Market","lat":51.5602262,"lng":-0.2808249,"type":"Supermarket","excess":151.5342041057},{"name":"Sainsbury's","lat":51.4887207,"lng":0.0262206,"type":"Supermarket","excess":0.0},{"name":"Landis","lat":51.5090231,"lng":-0.3465467,"type":"Supermarket","excess":89.7428723089},{"name":"ALDI","lat":51.5688694,"lng":0.1852441,"type":"Supermarket","excess":69.9342722333},{"name":"Lidl","lat":51.5135381,"lng":-0.249449,"type":"Supermarket","excess":142.9977369471},{"name":"Seoul Plaza","lat":51.4100721,"lng":-0.3027531,"type":"Supermarket","excess":76.7567631295},{"name":"Duri Korean Grocery","lat":51.5102499,"lng":-0.2872136,"type":"Supermarket","excess":174.3700487823},{"name":"Harvest International N8","lat":51.5819925,"lng":-0.1198501,"type":"Supermarket","excess":102.7582839742},{"name":"Oseyo","lat":51.4803409,"lng":-0.1450342,"type":"Supermarket","excess":130.0274221423},{"name":"Co-op Food","lat":51.552995,"lng":-0.2107674,"type":"Supermarket","excess":0.0},{"name":"Benjamin Ball Associates Ltd","lat":51.5074401,"lng":-0.1341441,"type":"Supermarket","excess":176.4160786137},{"name":"Evmolpia","lat":51.583208,"lng":-0.0996298,"type":"Supermarket","excess":25.0377607043},{"name":"Harringay Food Centre","lat":51.5825092,"lng":-0.099084,"type":"Supermarket","excess":25.7402230109},{"name":"Co-op Food","lat":51.5702582,"lng":-0.095911,"type":"Supermarket","excess":55.3087468709},{"name":"Lo Sfizio","lat":51.5871531,"lng":-0.0974278,"type":"Supermarket","excess":0.0},{"name":"Cudi Food Centre","lat":51.5868368,"lng":-0.0962494,"type":"Supermarket","excess":0.0},{"name":"4th Gardens Groceries & Takeaway","lat":51.5849934,"lng":-0.07803,"type":"Supermarket","excess":67.8646404481},{"name":"West Green Supermarket","lat":51.5843501,"lng":-0.0761711,"type":"Supermarket","excess":37.7268618381},{"name":"C&G Cash and Carry","lat":51.5843853,"lng":-0.0755314,"type":"Supermarket","excess":0.0},{"name":"Thornfield Supermarket","lat":51.6044019,"lng":-0.2073359,"type":"Supermarket","excess":244.308119888},{"name":"Kosher Cuisine","lat":51.6052002,"lng":-0.2072685,"type":"Supermarket","excess":0.0},{"name":"One Below","lat":51.4704106,"lng":-0.0690167,"type":"Supermarket","excess":342.0941714549},{"name":"Amazon Fresh","lat":51.3763464,"lng":-0.0939023,"type":"Supermarket","excess":229.5248377565},{"name":"TFC supermarket","lat":51.6219292,"lng":-0.0617736,"type":"Supermarket","excess":0.0},{"name":"The Olive Tree","lat":51.5288263,"lng":-0.2921496,"type":"Supermarket","excess":0.0},{"name":"Kopernik Polish Supermarket","lat":51.5288947,"lng":-0.2921576,"type":"Supermarket","excess":129.483730122},{"name":"Dailyfresh Foods","lat":51.4324108,"lng":-0.1640424,"type":"Supermarket","excess":604.0028674412},{"name":"0086 Supermarket","lat":51.4802196,"lng":-0.1283656,"type":"Supermarket","excess":274.7902456131},{"name":"Fu Lai","lat":51.5234556,"lng":-0.2618862,"type":"Supermarket","excess":0.0},{"name":"Yasar Halim","lat":51.6328805,"lng":-0.1260367,"type":"Supermarket","excess":118.0790867124},{"name":"M&S Simply Food","lat":51.4768107,"lng":0.0202227,"type":"Supermarket","excess":0.0},{"name":"M&S Food","lat":51.5151363,"lng":-0.1381359,"type":"Supermarket","excess":404.2023963219},{"name":"Blue Mountain Peak","lat":51.5376989,"lng":-0.248888,"type":"Supermarket","excess":97.944851742},{"name":"Mas Bazar Bethnal Green","lat":51.5264172,"lng":-0.0661906,"type":"Supermarket","excess":425.6938250309},{"name":"Mang Pinoy @ Kabul Plaza","lat":51.5359388,"lng":-0.2476959,"type":"Supermarket","excess":214.0185860754},{"name":"Unnamed","lat":51.6146175,"lng":-0.2758828,"type":"Supermarket","excess":443.3839825216},{"name":"Food Palace","lat":51.6327887,"lng":-0.1281015,"type":"Supermarket","excess":0.0},{"name":"Waitrose","lat":51.4990873,"lng":-0.1980595,"type":"Supermarket","excess":0.0},{"name":"Co-op Food","lat":51.4744819,"lng":0.035152,"type":"Supermarket","excess":197.1505476042},{"name":"Beren Supermarket","lat":51.632245,"lng":-0.126451,"type":"Supermarket","excess":123.9640925311},{"name":"Mleczko","lat":51.5968249,"lng":-0.111614,"type":"Supermarket","excess":91.0341173021},{"name":"Southgate Food Centre","lat":51.6328397,"lng":-0.1285426,"type":"Supermarket","excess":0.0},{"name":"UUGO Oriental Mini Mart","lat":51.6330351,"lng":-0.1293844,"type":"Supermarket","excess":159.5917667612},{"name":"ALDI","lat":51.5519828,"lng":-0.1118857,"type":"Supermarket","excess":120.736393153},{"name":"Oseyo","lat":51.5165509,"lng":-0.17496,"type":"Supermarket","excess":998.9883678191},{"name":"Bucharest Supermarket","lat":51.604378,"lng":-0.1884525,"type":"Supermarket","excess":116.7033087299},{"name":"Diamond Supermarket","lat":51.6245037,"lng":-0.1234229,"type":"Supermarket","excess":97.3778071457},{"name":"China Ark Market","lat":51.4897691,"lng":-0.0397314,"type":"Supermarket","excess":206.3741789319},{"name":"Amazon Fresh","lat":51.5486688,"lng":-0.190947,"type":"Supermarket","excess":209.3184706129},{"name":"Lidl","lat":51.4983335,"lng":-0.4043683,"type":"Supermarket","excess":0.0},{"name":"B&B Super Shop","lat":51.4981117,"lng":-0.394103,"type":"Supermarket","excess":239.1055249427},{"name":"Hayes Food Centre","lat":51.5088479,"lng":-0.4153713,"type":"Supermarket","excess":185.9612316115},{"name":"Damascene Rose","lat":51.5001626,"lng":-0.195929,"type":"Supermarket","excess":263.1120925164},{"name":"Co-Op Food","lat":51.4108879,"lng":0.010238,"type":"Supermarket","excess":108.1783943191},{"name":"Amazon Fresh","lat":51.509294,"lng":-0.1958982,"type":"Supermarket","excess":174.5162018122},{"name":"Hekede","lat":51.493776,"lng":-0.1016213,"type":"Supermarket","excess":261.8425078652},{"name":"Ha-Noi","lat":51.4773579,"lng":-0.0257789,"type":"Supermarket","excess":71.2683044165},{"name":"Asda","lat":51.4752446,"lng":-0.0262071,"type":"Supermarket","excess":0.0},{"name":"Sainsbury's","lat":51.4301275,"lng":-0.0332503,"type":"Supermarket","excess":0.0},{"name":"Sainsbury's","lat":51.546775,"lng":-0.2255269,"type":"Supermarket","excess":181.4622668526},{"name":"Waitrose","lat":51.6314179,"lng":-0.1758029,"type":"Supermarket","excess":115.1775573974},{"name":"M&S","lat":51.6347684,"lng":-0.175799,"type":"Supermarket","excess":0.0},{"name":"Tesco","lat":51.5743073,"lng":-0.2148519,"type":"Supermarket","excess":333.3584405555},{"name":"Sainsbury's","lat":51.4155913,"lng":-0.303206,"type":"Supermarket","excess":219.0224569576},{"name":"Sainsbury's","lat":51.4196874,"lng":-0.1292424,"type":"Supermarket","excess":0.0},{"name":"Tesco","lat":51.4598544,"lng":-0.1196612,"type":"Supermarket","excess":278.5080337044},{"name":"Sainsbury's","lat":51.577196,"lng":-0.0955445,"type":"Supermarket","excess":0.0},{"name":"Tesco","lat":51.6509642,"lng":-0.076743,"type":"Supermarket","excess":0.0},{"name":"Lidl","lat":51.4116691,"lng":-0.1586876,"type":"Supermarket","excess":32.4284767109},{"name":"Tesco","lat":51.4930249,"lng":-0.2015256,"type":"Supermarket","excess":56.1497393666},{"name":"Waitrose","lat":51.4250706,"lng":-0.2017521,"type":"Supermarket","excess":0.0},{"name":"Tesco","lat":51.4593488,"lng":-0.4150804,"type":"Supermarket","excess":105.3674743468},{"name":"Morrisons","lat":51.4730343,"lng":-0.0684465,"type":"Supermarket","excess":194.1301786914},{"name":"Lidl","lat":51.4724503,"lng":-0.0712745,"type":"Supermarket","excess":0.6767043703},{"name":"Morrisons","lat":51.6479924,"lng":-0.0593309,"type":"Supermarket","excess":54.7814736998},{"name":"Sainsbury's","lat":51.6519615,"lng":-0.057721,"type":"Supermarket","excess":28.7895674158},{"name":"Tesco Lea Valley Extra","lat":51.6099854,"lng":-0.0484011,"type":"Supermarket","excess":0.0},{"name":"Tesco Extra","lat":51.4591403,"lng":-0.3375478,"type":"Supermarket","excess":117.7641782644},{"name":"Asda","lat":51.6343607,"lng":-0.1314648,"type":"Supermarket","excess":0.1296060557},{"name":"Tesco Extra","lat":51.4857771,"lng":-0.330076,"type":"Supermarket","excess":163.1651258625},{"name":"Asda","lat":51.5563487,"lng":-0.009039,"type":"Supermarket","excess":16.337319466},{"name":"Waitrose","lat":51.3989864,"lng":0.0193244,"type":"Supermarket","excess":58.4532759055},{"name":"Sainsbury's","lat":51.3768101,"lng":-0.0150364,"type":"Supermarket","excess":29.9182711634},{"name":"Sainsbury's","lat":51.3770236,"lng":-0.0217321,"type":"Supermarket","excess":0.0},{"name":"Tesco Extra","lat":51.6480542,"lng":-0.0476222,"type":"Supermarket","excess":30.1768443837},{"name":"Sainsbury's","lat":51.5211076,"lng":-0.0584989,"type":"Supermarket","excess":0.0},{"name":"Tesco","lat":51.396439,"lng":-0.0501575,"type":"Supermarket","excess":177.7019371723},{"name":"Waitrose","lat":51.571324,"lng":-0.4230065,"type":"Supermarket","excess":0.0},{"name":"Waitrose","lat":51.5954499,"lng":0.0234331,"type":"Supermarket","excess":35.1721128621},{"name":"Morrisons","lat":51.6080441,"lng":-0.3649681,"type":"Supermarket","excess":196.7486182999},{"name":"Waitrose","lat":51.393852,"lng":-0.3051755,"type":"Supermarket","excess":128.5026266756},{"name":"Asda","lat":51.5300122,"lng":0.142463,"type":"Supermarket","excess":42.7634404589},{"name":"Tesco Extra","lat":51.6072532,"lng":-0.154855,"type":"Supermarket","excess":0.0},{"name":"Sainsbury's","lat":51.4341465,"lng":-0.3749872,"type":"Supermarket","excess":132.7409209117},{"name":"Lidl","lat":51.4483046,"lng":-0.4095918,"type":"Supermarket","excess":122.5048706323},{"name":"Lidl","lat":51.4125132,"lng":-0.2904058,"type":"Supermarket","excess":0.0},{"name":"Asda","lat":51.4112109,"lng":-0.2899439,"type":"Supermarket","excess":203.3469764539},{"name":"Morrisons","lat":51.3881923,"lng":0.074027,"type":"Supermarket","excess":233.9289318652},{"name":"Tesco Extra","lat":51.402393,"lng":-0.2399906,"type":"Supermarket","excess":182.4593488894},{"name":"Sainsbury's","lat":51.6042637,"lng":-0.0207611,"type":"Supermarket","excess":50.5940049303},{"name":"Morrisons","lat":51.6074849,"lng":-0.0217238,"type":"Supermarket","excess":138.0274013825},{"name":"Sainsbury's","lat":51.4620711,"lng":-0.1359266,"type":"Supermarket","excess":230.9484072364},{"name":"Asda","lat":51.3669469,"lng":-0.1953086,"type":"Supermarket","excess":25.3004524586},{"name":"Tesco","lat":51.443754,"lng":-0.4129985,"type":"Supermarket","excess":78.7506154165},{"name":"ALDI","lat":51.4439141,"lng":-0.4121199,"type":"Supermarket","excess":104.1018850363},{"name":"Tesco Extra","lat":51.5540237,"lng":-0.2553889,"type":"Supermarket","excess":54.6840716699},{"name":"Sainsbury's","lat":51.4126588,"lng":-0.0515861,"type":"Supermarket","excess":348.4842773359},{"name":"Sainsbury's","lat":51.617908,"lng":-0.1761177,"type":"Supermarket","excess":81.2692806628},{"name":"ALDI","lat":51.5623607,"lng":-0.3568075,"type":"Supermarket","excess":61.9722709461},{"name":"Morrisons","lat":51.4801364,"lng":0.1847046,"type":"Supermarket","excess":51.7521722599},{"name":"Asda","lat":51.4939203,"lng":-0.0130368,"type":"Supermarket","excess":606.1370282302},{"name":"Waitrose","lat":51.3781252,"lng":-0.2432915,"type":"Supermarket","excess":169.0015989567},{"name":"Sainsbury's","lat":51.3718314,"lng":-0.2247921,"type":"Supermarket","excess":110.7830716785},{"name":"Morrisons","lat":51.3607304,"lng":-0.1932535,"type":"Supermarket","excess":59.8334888212},{"name":"Tesco Extra","lat":51.3753454,"lng":-0.2067332,"type":"Supermarket","excess":69.78711461},{"name":"Sainsbury's","lat":51.5262994,"lng":-0.2177525,"type":"Supermarket","excess":60.5070182679},{"name":"Tesco","lat":51.4888141,"lng":-0.0760045,"type":"Supermarket","excess":352.5687936768},{"name":"Lidl","lat":51.3680392,"lng":-0.1945146,"type":"Supermarket","excess":46.9548516412},{"name":"Sainsbury's","lat":51.4547927,"lng":-0.1139067,"type":"Supermarket","excess":42.6771536363},{"name":"Sainsbury's","lat":51.5934992,"lng":0.0241159,"type":"Supermarket","excess":51.7931709053},{"name":"Waitrose","lat":51.5068601,"lng":-0.0673199,"type":"Supermarket","excess":158.5366326051},{"name":"Sainsbury's","lat":51.4177227,"lng":-0.0828958,"type":"Supermarket","excess":0.0},{"name":"Morrisons","lat":51.508358,"lng":-0.2726477,"type":"Supermarket","excess":60.9372480971},{"name":"Sainsbury's","lat":51.5213499,"lng":0.0659051,"type":"Supermarket","excess":191.9459766048},{"name":"Asda","lat":51.5149947,"lng":0.0577414,"type":"Supermarket","excess":0.0},{"name":"Asda","lat":51.4467208,"lng":-0.4121198,"type":"Supermarket","excess":198.6989626642},{"name":"Sainsbury's","lat":51.4953734,"lng":-0.1884639,"type":"Supermarket","excess":177.3626813031},{"name":"Lidl","lat":51.6719571,"lng":-0.0413558,"type":"Supermarket","excess":158.543468525},{"name":"Tesco","lat":51.5921111,"lng":0.0401776,"type":"Supermarket","excess":89.7619755809},{"name":"Asda","lat":51.5286197,"lng":-0.2702326,"type":"Supermarket","excess":48.4951539671},{"name":"Waitrose","lat":51.4027297,"lng":-0.2560625,"type":"Supermarket","excess":46.7524123949},{"name":"Lidl","lat":51.3840369,"lng":-0.1894021,"type":"Supermarket","excess":76.288245738},{"name":"Sainsbury's","lat":51.3659598,"lng":0.0553664,"type":"Supermarket","excess":32.1530095465},{"name":"ALDI","lat":51.3987569,"lng":0.1143007,"type":"Supermarket","excess":176.0677008042},{"name":"Tesco Superstore Finchley","lat":51.6031356,"lng":-0.1920654,"type":"Supermarket","excess":124.9770920355},{"name":"ALDI","lat":51.5692341,"lng":0.0112351,"type":"Supermarket","excess":0.0},{"name":"Tesco","lat":51.5718503,"lng":0.0138803,"type":"Supermarket","excess":0.0},{"name":"Sainsbury's","lat":51.4621859,"lng":-0.2155636,"type":"Supermarket","excess":143.6427767488},{"name":"Sainsbury's","lat":51.5884618,"lng":0.0817535,"type":"Supermarket","excess":7.0701671513},{"name":"Tesco","lat":51.5469169,"lng":-0.0527374,"type":"Supermarket","excess":250.0739714133},{"name":"Waitrose","lat":51.5676344,"lng":-0.3521836,"type":"Supermarket","excess":2.6587330222},{"name":"Sainsbury's","lat":51.5342457,"lng":-0.1077522,"type":"Supermarket","excess":375.9933557564},{"name":"Waitrose","lat":51.5561703,"lng":-0.116155,"type":"Supermarket","excess":191.6514857551},{"name":"Morrisons","lat":51.5571856,"lng":-0.1165799,"type":"Supermarket","excess":334.5379169613},{"name":"Sainsbury's","lat":51.3989109,"lng":-0.0863305,"type":"Supermarket","excess":248.5035269704},{"name":"Sainsbury's","lat":51.5818542,"lng":-0.2438947,"type":"Supermarket","excess":273.1719327997},{"name":"The Food Warehouse","lat":51.4801916,"lng":-0.0574183,"type":"Supermarket","excess":0.0},{"name":"Asda","lat":51.4395773,"lng":-0.245784,"type":"Supermarket","excess":0.0},{"name":"Co-op Food","lat":51.5411845,"lng":-0.1173775,"type":"Supermarket","excess":215.1409603199},{"name":"H Mart","lat":51.4023201,"lng":-0.2677698,"type":"Supermarket","excess":0.0},{"name":"Waitrose","lat":51.5248978,"lng":-0.1241527,"type":"Supermarket","excess":531.7274718693},{"name":"Waitrose","lat":51.4115805,"lng":-0.0263468,"type":"Supermarket","excess":187.7009643727},{"name":"Harvest N1","lat":51.5388362,"lng":-0.0984581,"type":"Supermarket","excess":125.596611652},{"name":"Co-op Food","lat":51.4510504,"lng":0.1045761,"type":"Supermarket","excess":96.0360347431},{"name":"Asda","lat":51.4655207,"lng":-0.1649233,"type":"Supermarket","excess":67.5906785634},{"name":"Lidl","lat":51.464937,"lng":-0.1670748,"type":"Supermarket","excess":419.6995946633},{"name":"Tesco","lat":51.4000431,"lng":0.0316044,"type":"Supermarket","excess":17.5433664071},{"name":"Sainsbury's","lat":51.4066378,"lng":0.0143693,"type":"Supermarket","excess":274.6468228927},{"name":"Sainsbury's","lat":51.6165594,"lng":-0.0191817,"type":"Supermarket","excess":69.2011896307},{"name":"Lidl","lat":51.5345551,"lng":-0.3896486,"type":"Supermarket","excess":0.0},{"name":"Tesco","lat":51.4125897,"lng":0.1226963,"type":"Supermarket","excess":0.0},{"name":"Morrisons","lat":51.5919586,"lng":-0.2845743,"type":"Supermarket","excess":108.0090193568},{"name":"Morrisons","lat":51.5078197,"lng":0.1057273,"type":"Supermarket","excess":251.1137034797},{"name":"Morrisons","lat":51.5666977,"lng":-0.0738073,"type":"Supermarket","excess":23.940449834},{"name":"Sainsbury's","lat":51.5153459,"lng":-0.4034687,"type":"Supermarket","excess":339.6697987858},{"name":"Lidl","lat":51.562457,"lng":-0.2205275,"type":"Supermarket","excess":234.8170084704},{"name":"Amazon Fresh","lat":51.6316222,"lng":0.0036084,"type":"Supermarket","excess":94.230031251},{"name":"Waitrose","lat":51.3551194,"lng":0.0900925,"type":"Supermarket","excess":0.0},{"name":"Tesco","lat":51.5438125,"lng":0.2082761,"type":"Supermarket","excess":99.3045813034},{"name":"Sainsbury's","lat":51.57324,"lng":-0.0733558,"type":"Supermarket","excess":0.0},{"name":"Tesco Extra","lat":51.5247617,"lng":-0.3849372,"type":"Supermarket","excess":338.1905182957},{"name":"Tesco","lat":51.5969732,"lng":-0.3954259,"type":"Supermarket","excess":0.0},{"name":"Lidl","lat":51.5576986,"lng":-0.3840976,"type":"Supermarket","excess":140.9987671377},{"name":"Sainsbury's","lat":51.629497,"lng":-0.0985647,"type":"Supermarket","excess":108.5901590736},{"name":"The Co-operative Food","lat":51.4271244,"lng":0.0123746,"type":"Supermarket","excess":236.2613022925},{"name":"Aldi","lat":51.5690694,"lng":-0.0301689,"type":"Supermarket","excess":65.0417422526},{"name":"Tesco","lat":51.5744743,"lng":-0.0121324,"type":"Supermarket","excess":75.896326017},{"name":"Sainsbury's","lat":51.5564248,"lng":0.0693913,"type":"Supermarket","excess":56.5280285597},{"name":"Sainsbury's","lat":51.5565196,"lng":0.0699064,"type":"Supermarket","excess":0.0},{"name":"Franklins","lat":51.4561043,"lng":-0.0759155,"type":"Supermarket","excess":116.5715242462},{"name":"Co-op","lat":51.5300793,"lng":-0.0980576,"type":"Supermarket","excess":283.8460683832},{"name":"Co-op Food","lat":51.4734483,"lng":-0.0935873,"type":"Supermarket","excess":114.8119482336},{"name":"Crackerjack","lat":51.4731124,"lng":-0.0703967,"type":"Supermarket","excess":276.7959126639},{"name":"Lidl","lat":51.4798035,"lng":-0.0583522,"type":"Supermarket","excess":0.0},{"name":"Co-op Food","lat":51.6070833,"lng":0.0322548,"type":"Supermarket","excess":76.727984908},{"name":"Aldi","lat":51.5651061,"lng":-0.133968,"type":"Supermarket","excess":13.9331256232},{"name":"Co-op Food","lat":51.564915,"lng":-0.1344671,"type":"Supermarket","excess":260.8015628905},{"name":"Iceland","lat":51.5390417,"lng":-0.1941075,"type":"Supermarket","excess":71.0353088278},{"name":"Sainsbury's","lat":51.5388482,"lng":-0.1935891,"type":"Supermarket","excess":511.3276500957},{"name":"Khan's Bargain","lat":51.4696839,"lng":-0.0678611,"type":"Supermarket","excess":56.9718372782},{"name":"The Pantry","lat":51.473539,"lng":-0.0886228,"type":"Supermarket","excess":547.6884518862},{"name":"M&S Simply Food","lat":51.5941531,"lng":0.0241716,"type":"Supermarket","excess":58.5916561408},{"name":"Sainsbury's Local","lat":51.5278364,"lng":-0.19711,"type":"Supermarket","excess":1197.8370468893},{"name":"Asda","lat":51.3767917,"lng":-0.1300799,"type":"Supermarket","excess":187.4716021546},{"name":"Co-op Food","lat":51.4587224,"lng":-0.0753713,"type":"Supermarket","excess":0.0},{"name":"M&S Foodhall","lat":51.4578403,"lng":-0.0755603,"type":"Supermarket","excess":286.3047426773},{"name":"Lidl","lat":51.4058387,"lng":-0.1663441,"type":"Supermarket","excess":0.0},{"name":"Sainsbury's","lat":51.4439409,"lng":-0.1513961,"type":"Supermarket","excess":328.270311045},{"name":"Waitrose","lat":51.4456686,"lng":-0.1516985,"type":"Supermarket","excess":213.1763071445},{"name":"Asda","lat":51.4074231,"lng":-0.1682326,"type":"Supermarket","excess":0.0},{"name":"Hoo Hing","lat":51.4079795,"lng":-0.1679263,"type":"Supermarket","excess":131.1539576106},{"name":"Asda","lat":51.6224331,"lng":-0.0595235,"type":"Supermarket","excess":0.0},{"name":"Sainsbury's","lat":51.5815297,"lng":-0.3152698,"type":"Supermarket","excess":8.6255167395},{"name":"Waitrose","lat":51.4886424,"lng":-0.167006,"type":"Supermarket","excess":59.7991451459},{"name":"Oncu Food Centre","lat":51.6780945,"lng":-0.0348745,"type":"Supermarket","excess":54.6177462632},{"name":"FoodArt","lat":51.6701896,"lng":-0.041276,"type":"Supermarket","excess":118.6047499675},{"name":"Enfield Food Centre","lat":51.6697622,"lng":-0.0414827,"type":"Supermarket","excess":55.7933662061},{"name":"Fresh Food Centre","lat":51.657841,"lng":-0.0475553,"type":"Supermarket","excess":102.201931896},{"name":"Efe Food & Wine","lat":51.6572805,"lng":-0.0475795,"type":"Supermarket","excess":35.8823117381},{"name":"M&S Simply Food","lat":51.5382266,"lng":-0.1930781,"type":"Supermarket","excess":660.1869811369},{"name":"Buy Wise","lat":51.550297,"lng":-0.1308485,"type":"Supermarket","excess":214.9585156924},{"name":"Morrisons","lat":51.5428859,"lng":-0.1499053,"type":"Supermarket","excess":669.8967980519},{"name":"Londis","lat":51.5680305,"lng":-0.3956668,"type":"Supermarket","excess":374.4568887979},{"name":"Lidl","lat":51.4196814,"lng":-0.1637862,"type":"Supermarket","excess":31.0743972395},{"name":"Waitrose","lat":51.3090316,"lng":0.0366742,"type":"Supermarket","excess":0.0},{"name":"Waitrose","lat":51.4647294,"lng":-0.268792,"type":"Supermarket","excess":17.0912582492},{"name":"Mercan Food Centre","lat":51.5584877,"lng":-0.0686689,"type":"Supermarket","excess":130.527584403},{"name":"Waitrose","lat":51.5338335,"lng":-0.107434,"type":"Supermarket","excess":0.0},{"name":"Tesco Extra","lat":51.4990756,"lng":-0.4077505,"type":"Supermarket","excess":102.2907145383},{"name":"Healthwise","lat":51.533541,"lng":-0.1099531,"type":"Supermarket","excess":220.3295321158},{"name":"Costcutter","lat":51.5298733,"lng":0.1540082,"type":"Supermarket","excess":12.2043239912},{"name":"Lidl","lat":51.5420331,"lng":0.1485505,"type":"Supermarket","excess":9.9596479635},{"name":"ALDI","lat":51.5405668,"lng":-0.1961066,"type":"Supermarket","excess":267.7313364462},{"name":"Partrigdes","lat":51.4906501,"lng":-0.1605931,"type":"Supermarket","excess":103.5310593467},{"name":"Morrisons","lat":51.559393,"lng":0.148482,"type":"Supermarket","excess":117.2108432686},{"name":"Aguona Express","lat":51.5613204,"lng":0.1473021,"type":"Supermarket","excess":92.193549682},{"name":"Sainsbury's","lat":51.5480688,"lng":-0.1819355,"type":"Supermarket","excess":529.4545828518},{"name":"Waitrose","lat":51.5837715,"lng":-0.2000693,"type":"Supermarket","excess":109.2653220699},{"name":"Fridge Of Plenty","lat":51.577833,"lng":-0.1233779,"type":"Supermarket","excess":77.4086014182},{"name":"Sainsbury's","lat":51.4271005,"lng":-0.168026,"type":"Supermarket","excess":41.6909264132},{"name":"Tesco Extra","lat":51.5658056,"lng":0.1919145,"type":"Supermarket","excess":0.0},{"name":"Waitrose","lat":51.5435461,"lng":-0.0097221,"type":"Supermarket","excess":59.7267045106},{"name":"Asda","lat":51.5801934,"lng":0.1852967,"type":"Supermarket","excess":25.8644496178},{"name":"Lidl","lat":51.4642954,"lng":0.1074691,"type":"Supermarket","excess":29.8897557188},{"name":"Tesco Extra","lat":51.3369067,"lng":-0.1170549,"type":"Supermarket","excess":159.0308629237},{"name":"Sainsbury's","lat":51.3422808,"lng":-0.0629523,"type":"Supermarket","excess":209.5806575215},{"name":"Sainsbury's","lat":51.5707479,"lng":-0.1945386,"type":"Supermarket","excess":0.0},{"name":"Sainsbury's","lat":51.5405059,"lng":-0.1408073,"type":"Supermarket","excess":970.2921701323},{"name":"Tesco Extra","lat":51.3739537,"lng":0.0966303,"type":"Supermarket","excess":199.7988310538},{"name":"Co-op Food","lat":51.3824872,"lng":0.1070609,"type":"Supermarket","excess":212.4915244254},{"name":"Sainsbury's","lat":51.3758168,"lng":0.1006409,"type":"Supermarket","excess":141.6871910533},{"name":"Bestway Cash & Carry","lat":51.3780481,"lng":-0.1281353,"type":"Supermarket","excess":52.657123938},{"name":"Waitrose","lat":51.4802014,"lng":-0.1994,"type":"Supermarket","excess":329.3679294118},{"name":"May Lane's Co-op","lat":51.6457036,"lng":-0.2033147,"type":"Supermarket","excess":0.0},{"name":"Sainsbury's","lat":51.449159,"lng":0.1789398,"type":"Supermarket","excess":178.2795987771},{"name":"Co-op Food","lat":51.4842153,"lng":-0.2021685,"type":"Supermarket","excess":0.0},{"name":"Lidl","lat":51.5407536,"lng":-0.0538609,"type":"Supermarket","excess":237.5762831496},{"name":"Sainsbury's","lat":51.4264392,"lng":-0.3775939,"type":"Supermarket","excess":151.0104716049},{"name":"Sainsbury's","lat":51.3914448,"lng":-0.3077996,"type":"Supermarket","excess":31.4784262615},{"name":"Sainsbury's","lat":51.4399647,"lng":-0.0554981,"type":"Supermarket","excess":0.0},{"name":"Sainsbury's","lat":51.4665899,"lng":-0.2865132,"type":"Supermarket","excess":92.223663187},{"name":"Morrisons","lat":51.4195159,"lng":-0.204508,"type":"Supermarket","excess":86.4442158305},{"name":"Tesco Express","lat":51.5902471,"lng":-0.01656,"type":"Supermarket","excess":49.7880862886},{"name":"Tesco Extra Gallows Corner","lat":51.5936772,"lng":0.2185554,"type":"Supermarket","excess":0.0},{"name":"Sainsbury's","lat":51.4934108,"lng":-0.2651161,"type":"Supermarket","excess":186.6853618561},{"name":"ALDI (Shop & Go)","lat":51.4792062,"lng":-0.010924,"type":"Supermarket","excess":16.165926143},{"name":"The Grocery","lat":51.5289315,"lng":-0.0775825,"type":"Supermarket","excess":118.6669922575},{"name":"Longdan","lat":51.529666,"lng":-0.0777223,"type":"Supermarket","excess":41.2299396811},{"name":"Lidl","lat":51.4143386,"lng":-0.1236833,"type":"Supermarket","excess":256.0047876951},{"name":"Waitrose","lat":51.6072399,"lng":-0.2090457,"type":"Supermarket","excess":245.3694297763},{"name":"Nisa","lat":51.5522476,"lng":-0.1326785,"type":"Supermarket","excess":407.9910069702},{"name":"Lidl","lat":51.3806931,"lng":-0.1057724,"type":"Supermarket","excess":244.1910717106},{"name":"Morrisons","lat":51.4728847,"lng":-0.0919751,"type":"Supermarket","excess":305.3356757475},{"name":"Co-op Food","lat":51.6122145,"lng":-0.1595844,"type":"Supermarket","excess":59.9215652909},{"name":"Tesco Extra","lat":51.5176079,"lng":0.0756004,"type":"Supermarket","excess":206.5526609803},{"name":"ALDI","lat":51.4084631,"lng":-0.0590191,"type":"Supermarket","excess":60.563914591},{"name":"Tesco","lat":51.4664028,"lng":-0.0126086,"type":"Supermarket","excess":145.2711216738},{"name":"ALDI","lat":51.6447779,"lng":-0.1639025,"type":"Supermarket","excess":433.7675536268},{"name":"Asda","lat":51.5936134,"lng":-0.069038,"type":"Supermarket","excess":0.0},{"name":"Co-op Food","lat":51.4726418,"lng":0.0459039,"type":"Supermarket","excess":227.4043137225},{"name":"Sainsbury's","lat":51.4499775,"lng":0.0574307,"type":"Supermarket","excess":66.3404123011},{"name":"Lidl","lat":51.4510994,"lng":0.0558546,"type":"Supermarket","excess":0.0},{"name":"Sainsbury's","lat":51.4188285,"lng":0.0664772,"type":"Supermarket","excess":165.9027561018},{"name":"Wing Yip","lat":51.3623027,"lng":-0.1193563,"type":"Supermarket","excess":1.7936224149},{"name":"Morrisons","lat":51.3647849,"lng":-0.1202749,"type":"Supermarket","excess":490.0057917233},{"name":"M&S Simply Food","lat":51.4520147,"lng":-0.1481232,"type":"Supermarket","excess":325.7281970143},{"name":"Tesco Extra","lat":51.520151,"lng":0.1910242,"type":"Supermarket","excess":77.6465427109},{"name":"Sainsbury's","lat":51.4772913,"lng":-0.0423342,"type":"Supermarket","excess":130.2964622432},{"name":"Spar","lat":51.4648122,"lng":-0.0378874,"type":"Supermarket","excess":72.9240067278},{"name":"Tesco Superstore","lat":51.5862194,"lng":-0.3336919,"type":"Supermarket","excess":94.7758274254},{"name":"Greens International Food Centre","lat":51.6121976,"lng":-0.1728903,"type":"Supermarket","excess":20.3745616132},{"name":"ALDI","lat":51.4040957,"lng":-0.2722667,"type":"Supermarket","excess":165.3550469697},{"name":"Aldi","lat":51.3449122,"lng":-0.0590883,"type":"Supermarket","excess":522.548708109},{"name":"ALDI","lat":51.3976773,"lng":-0.076489,"type":"Supermarket","excess":0.0},{"name":"Morrisons","lat":51.596318,"lng":-0.1106971,"type":"Supermarket","excess":78.6633134352},{"name":"Sainsbury's","lat":51.5925624,"lng":-0.105032,"type":"Supermarket","excess":9.6368097849},{"name":"Latin Stop Mini Market","lat":51.590895,"lng":-0.1030868,"type":"Supermarket","excess":50.9335194809},{"name":"Quality Foods","lat":51.5090169,"lng":-0.3764897,"type":"Supermarket","excess":265.9799241922},{"name":"Mr Meat","lat":51.3733541,"lng":-0.102233,"type":"Supermarket","excess":362.7219069678},{"name":"Sainsbury's","lat":51.5826723,"lng":-0.0270695,"type":"Supermarket","excess":67.0038821198},{"name":"Unnamed","lat":51.3746345,"lng":-0.0959795,"type":"Supermarket","excess":163.9343229199},{"name":"Gazi International Supermarket","lat":51.5818141,"lng":-0.0336152,"type":"Supermarket","excess":0.0},{"name":"Lidl","lat":51.5822886,"lng":-0.0320271,"type":"Supermarket","excess":40.8276039963},{"name":"Terra House","lat":51.3696554,"lng":-0.100058,"type":"Supermarket","excess":71.1103145177},{"name":"HFC Hyper Food Centre","lat":51.586625,"lng":-0.2196641,"type":"Supermarket","excess":226.3632924424},{"name":"Waitrose","lat":51.5175713,"lng":-0.1657751,"type":"Supermarket","excess":388.5701161988},{"name":"Waitrose","lat":51.3319257,"lng":-0.0747943,"type":"Supermarket","excess":274.6540502178},{"name":"Morrisons","lat":51.4248993,"lng":0.1029848,"type":"Supermarket","excess":48.5168002697},{"name":"Waitrose","lat":51.492766,"lng":-0.2630791,"type":"Supermarket","excess":129.510296813},{"name":"M&S Simply Food","lat":51.4913952,"lng":-0.1924367,"type":"Supermarket","excess":233.3138420851},{"name":"M&S Foodhall","lat":51.4929374,"lng":-0.2580193,"type":"Supermarket","excess":0.0},{"name":"Food Hall Wood Street","lat":51.5887503,"lng":-0.0045481,"type":"Supermarket","excess":40.6911814021},{"name":"Planet Organic","lat":51.4922777,"lng":-0.2576682,"type":"Supermarket","excess":219.5669163097},{"name":"Sainsbury's","lat":51.5631464,"lng":0.2181943,"type":"Supermarket","excess":78.7895462515},{"name":"Lidl","lat":51.5634794,"lng":0.2153715,"type":"Supermarket","excess":77.2743645104},{"name":"Unnamed","lat":51.5632483,"lng":0.2163452,"type":"Supermarket","excess":73.8222412405},{"name":"Lidl","lat":51.5737393,"lng":0.183082,"type":"Supermarket","excess":31.6948955353},{"name":"The Source Bulk Foods","lat":51.4934588,"lng":-0.2550465,"type":"Supermarket","excess":27.8786125306},{"name":"M&S Food","lat":51.4633979,"lng":-0.11534,"type":"Supermarket","excess":246.8703204643},{"name":"Morrisons - Harrow","lat":51.5803963,"lng":-0.3428484,"type":"Supermarket","excess":170.1512196193},{"name":"Tesco","lat":51.5265566,"lng":-0.0097585,"type":"Supermarket","excess":415.7280353471},{"name":"Tesco","lat":51.4462512,"lng":-0.0222115,"type":"Supermarket","excess":184.8929047473},{"name":"ALDI","lat":51.4486373,"lng":-0.0177081,"type":"Supermarket","excess":0.0},{"name":"Lidl","lat":51.4444705,"lng":-0.0190131,"type":"Supermarket","excess":35.2664789862},{"name":"Hoo Hing","lat":51.5367306,"lng":-0.2861733,"type":"Supermarket","excess":375.3018334114},{"name":"Tesco Express","lat":51.5872897,"lng":-0.0370028,"type":"Supermarket","excess":57.0430402955},{"name":"Iceland","lat":51.4620443,"lng":-0.1385808,"type":"Supermarket","excess":269.9302692631},{"name":"Sainsbury's","lat":51.375806,"lng":-0.1178049,"type":"Supermarket","excess":311.0097023574},{"name":"Tesco Extra","lat":51.4945242,"lng":-0.0459196,"type":"Supermarket","excess":4.9913313914},{"name":"Loon Fung","lat":51.5370922,"lng":-0.3019762,"type":"Supermarket","excess":78.3392149998},{"name":"Iceland","lat":51.5560807,"lng":-0.3367303,"type":"Supermarket","excess":305.7468795044},{"name":"Lidl","lat":51.4211224,"lng":0.0210736,"type":"Supermarket","excess":82.9029289111},{"name":"Lidl","lat":51.4926607,"lng":0.0659963,"type":"Supermarket","excess":18.8931350483},{"name":"Lidl","lat":51.3878143,"lng":-0.0967704,"type":"Supermarket","excess":107.3599111082},{"name":"Asda","lat":51.484681,"lng":-0.0699709,"type":"Supermarket","excess":630.4442039338},{"name":"Lidl","lat":51.6142495,"lng":-0.0652236,"type":"Supermarket","excess":108.9248072733},{"name":"Sainsbury's","lat":51.4560935,"lng":0.0101011,"type":"Supermarket","excess":141.0431811245},{"name":"Co-op Food","lat":51.4511525,"lng":-0.0064696,"type":"Supermarket","excess":58.7921132941},{"name":"Morrisons Daily","lat":51.4452764,"lng":-0.0074579,"type":"Supermarket","excess":377.4231171601},{"name":"Sainsbury's","lat":51.6170729,"lng":-0.3110331,"type":"Supermarket","excess":117.806501404},{"name":"Waitrose","lat":51.6053469,"lng":-0.3395671,"type":"Supermarket","excess":6.1442254872},{"name":"Lidl","lat":51.6182912,"lng":-0.3085644,"type":"Supermarket","excess":79.1264022164},{"name":"Yasar Halim","lat":51.5809754,"lng":-0.0996795,"type":"Supermarket","excess":6.543587226},{"name":"Asda","lat":51.5577584,"lng":-0.360861,"type":"Supermarket","excess":159.9088961766},{"name":"Waitrose","lat":51.5917627,"lng":-0.1424339,"type":"Supermarket","excess":34.2621917703},{"name":"Aldi","lat":51.592105,"lng":-0.1426083,"type":"Supermarket","excess":45.8325683879},{"name":"Sainsbury's","lat":51.5386902,"lng":-0.3032797,"type":"Supermarket","excess":165.7452039512},{"name":"Morrisons","lat":51.4874996,"lng":-0.0959149,"type":"Supermarket","excess":102.1070052289},{"name":"Co-op Food","lat":51.4782708,"lng":-0.1027616,"type":"Supermarket","excess":525.5637135394},{"name":"Londis","lat":51.4503055,"lng":-0.1989591,"type":"Supermarket","excess":270.7706820559},{"name":"Haran Bros","lat":51.3834688,"lng":-0.1082531,"type":"Supermarket","excess":67.6461448779},{"name":"Best Foods Supermarket","lat":51.3837357,"lng":-0.108586,"type":"Supermarket","excess":71.2481091414},{"name":"Tesco","lat":51.6081083,"lng":-0.0024801,"type":"Supermarket","excess":0.0},{"name":"M&S Food","lat":51.5475842,"lng":-0.055482,"type":"Supermarket","excess":121.6077027615},{"name":"Kenninghall Food & Wine","lat":51.558658,"lng":-0.0632151,"type":"Supermarket","excess":65.0644268461},{"name":"Asda","lat":51.5941032,"lng":-0.2611865,"type":"Supermarket","excess":119.1309770299},{"name":"Sainsbury's","lat":51.6117303,"lng":-0.2758021,"type":"Supermarket","excess":225.1002820092},{"name":"Lidl","lat":51.6096649,"lng":-0.2788373,"type":"Supermarket","excess":65.6372544059},{"name":"ALDI","lat":51.5852359,"lng":-0.2799051,"type":"Supermarket","excess":40.0967213245},{"name":"Waitrose","lat":51.6534088,"lng":-0.0924662,"type":"Supermarket","excess":58.9120124972},{"name":"V.B. & Sons","lat":51.5446513,"lng":-0.2967261,"type":"Supermarket","excess":163.7489528157},{"name":"ALDI","lat":51.5476627,"lng":-0.0752219,"type":"Supermarket","excess":0.0},{"name":"Grace Afro-Caribbean Supermarket","lat":51.3860513,"lng":-0.110743,"type":"Supermarket","excess":21.4684498195},{"name":"Family Choice","lat":51.3850606,"lng":-0.1098655,"type":"Supermarket","excess":129.0482982487},{"name":"Sainsbury's","lat":51.4911032,"lng":0.0636073,"type":"Supermarket","excess":211.8724747455},{"name":"Co-op Food","lat":51.4804487,"lng":0.080801,"type":"Supermarket","excess":152.7072363414},{"name":"Tesco","lat":51.4616233,"lng":0.1099668,"type":"Supermarket","excess":13.6265562132},{"name":"Morrisons","lat":51.4626063,"lng":0.1101912,"type":"Supermarket","excess":51.3598324033},{"name":"Lidl","lat":51.5574886,"lng":-0.118016,"type":"Supermarket","excess":0.0},{"name":"Enfield Food Hall","lat":51.6461417,"lng":-0.0471584,"type":"Supermarket","excess":102.3680722015},{"name":"Ponders End Food Centre","lat":51.6446083,"lng":-0.0466674,"type":"Supermarket","excess":0.0},{"name":"The Valley","lat":51.5421986,"lng":-0.1980041,"type":"Supermarket","excess":172.6124426741},{"name":"Morrisons","lat":51.5430998,"lng":0.0050594,"type":"Supermarket","excess":263.3744542483},{"name":"Asda","lat":51.5948423,"lng":-0.3356819,"type":"Supermarket","excess":139.6634736272},{"name":"Tariq Supermarket","lat":51.5934479,"lng":-0.3348613,"type":"Supermarket","excess":133.2268799209},{"name":"Mleczko","lat":51.5824834,"lng":-0.315633,"type":"Supermarket","excess":154.2569249488},{"name":"Mleczko","lat":51.5824678,"lng":-0.315639,"type":"Supermarket","excess":315.5156154871},{"name":"Polmar","lat":51.5529214,"lng":-0.2963173,"type":"Supermarket","excess":276.770304347},{"name":"Mieszko Food City","lat":51.5559214,"lng":-0.3368051,"type":"Supermarket","excess":429.2138243165},{"name":"Waitrose","lat":51.4990007,"lng":-0.1568362,"type":"Supermarket","excess":506.6168918107},{"name":"Tesco","lat":51.5156275,"lng":-0.4772941,"type":"Supermarket","excess":514.5224448884},{"name":"Phoomi Supermarket","lat":51.3834928,"lng":-0.108364,"type":"Supermarket","excess":0.0},{"name":"Tesco Extra","lat":51.5664217,"lng":0.1118906,"type":"Supermarket","excess":0.0},{"name":"Tesco","lat":51.5367555,"lng":-0.2466033,"type":"Supermarket","excess":0.0},{"name":"Lidl","lat":51.5359383,"lng":0.0814453,"type":"Supermarket","excess":100.7201456803},{"name":"Tesco","lat":51.536412,"lng":0.0708239,"type":"Supermarket","excess":33.1073295152},{"name":"Tesco","lat":51.5688998,"lng":-0.1121568,"type":"Supermarket","excess":138.9686255138},{"name":"Co-op Food","lat":51.4813611,"lng":0.0698559,"type":"Supermarket","excess":0.0},{"name":"Zaman Brothers Cash and Carry","lat":51.5180441,"lng":-0.071294,"type":"Supermarket","excess":201.5903806879},{"name":"Taj Stores","lat":51.5199569,"lng":-0.0716825,"type":"Supermarket","excess":0.0},{"name":"The Co-operative Food","lat":51.5249647,"lng":-0.2025325,"type":"Supermarket","excess":0.0},{"name":"Tesco","lat":51.5429708,"lng":-0.0477593,"type":"Supermarket","excess":0.0},{"name":"Londis","lat":51.442904,"lng":-0.3510918,"type":"Supermarket","excess":81.8810060601},{"name":"Tesco","lat":51.5847248,"lng":-0.0713761,"type":"Supermarket","excess":118.4187239881},{"name":"Lidl","lat":51.4354389,"lng":-0.350552,"type":"Supermarket","excess":24.0507698954},{"name":"Asda","lat":51.488723,"lng":0.0222825,"type":"Supermarket","excess":39.1694971341},{"name":"Tesco","lat":51.4257429,"lng":-0.3385908,"type":"Supermarket","excess":0.0},{"name":"Co-op Food","lat":51.4104157,"lng":-0.1232615,"type":"Supermarket","excess":267.2242019434},{"name":"Tian Tian Market","lat":51.5242161,"lng":-0.1239966,"type":"Supermarket","excess":0.0},{"name":"Waitrose","lat":51.5562291,"lng":0.2530892,"type":"Supermarket","excess":68.323779877},{"name":"JUSTin GREEN","lat":51.352964,"lng":-0.0978043,"type":"Supermarket","excess":119.412726521},{"name":"ALDI","lat":51.5960514,"lng":-0.0679596,"type":"Supermarket","excess":124.3805837964},{"name":"M&S Simply Food","lat":51.4276089,"lng":-0.3292356,"type":"Supermarket","excess":198.5785974507},{"name":"Lidl","lat":51.4735014,"lng":-0.120763,"type":"Supermarket","excess":421.780223315},{"name":"Lidl","lat":51.4592404,"lng":-0.1238887,"type":"Supermarket","excess":30.2224435263},{"name":"Yasar Halim","lat":51.6230257,"lng":-0.1033167,"type":"Supermarket","excess":113.2593224423},{"name":"Despina's Food Store","lat":51.6166175,"lng":-0.1402103,"type":"Supermarket","excess":63.1433836247},{"name":"Akin","lat":51.6225494,"lng":-0.0616551,"type":"Supermarket","excess":92.3935619992},{"name":"Around the Clock 24 hour Off License","lat":51.5431541,"lng":-0.199897,"type":"Supermarket","excess":239.0469027846},{"name":"ALDI","lat":51.443539,"lng":-0.1521296,"type":"Supermarket","excess":142.5213033453},{"name":"Tesco","lat":51.5338273,"lng":-0.3188847,"type":"Supermarket","excess":415.9266587757},{"name":"V.B. & Sons","lat":51.5291552,"lng":-0.3544345,"type":"Supermarket","excess":28.4860751863},{"name":"Aldi","lat":51.5564394,"lng":0.2485478,"type":"Supermarket","excess":128.9953003264},{"name":"ALDI","lat":51.5232606,"lng":0.0704605,"type":"Supermarket","excess":169.1095848828},{"name":"Tesco","lat":51.3990539,"lng":-0.0996571,"type":"Supermarket","excess":148.3094477905},{"name":"Kopernik","lat":51.5312266,"lng":-0.3504428,"type":"Supermarket","excess":255.4542881911},{"name":"Waitrose","lat":51.5130086,"lng":-0.3214027,"type":"Supermarket","excess":540.5687561966},{"name":"M&S Simply Food","lat":51.5138405,"lng":-0.0948827,"type":"Supermarket","excess":0.6804141904},{"name":"West Norword Co-op","lat":51.4343561,"lng":-0.1034777,"type":"Supermarket","excess":127.2289304956},{"name":"Waitrose","lat":51.3219842,"lng":-0.1371753,"type":"Supermarket","excess":0.0},{"name":"Lidl","lat":51.5105608,"lng":-0.3729394,"type":"Supermarket","excess":0.0},{"name":"Co-operative Food","lat":51.4502874,"lng":-0.190109,"type":"Supermarket","excess":307.76860159},{"name":"Co-op Food","lat":51.630765,"lng":0.0020973,"type":"Supermarket","excess":13.7078021751},{"name":"EGE Food Centre","lat":51.6119051,"lng":-0.0733676,"type":"Supermarket","excess":0.0},{"name":"ALDI","lat":51.4675782,"lng":-0.3722241,"type":"Supermarket","excess":29.5224902331},{"name":"M&S Foodhall","lat":51.6121528,"lng":-0.1429422,"type":"Supermarket","excess":91.1032206544},{"name":"Noor","lat":51.5183796,"lng":-0.1674246,"type":"Supermarket","excess":0.0},{"name":"Lidl","lat":51.6036294,"lng":0.084773,"type":"Supermarket","excess":52.6281745565},{"name":"Sainsbury's","lat":51.4674656,"lng":-0.1872897,"type":"Supermarket","excess":220.4999145084},